SOURCE,UNID,Unnamed: 3,COUNTRY,PROVINCE,CITY,LAT,LON,WWTP/MUNICIPALITY,WWTP start up,Reuse project start up,Status of operation for WWTP ,Status of operation for Reuse project (yes/no),Wastewater input type ,WW Treatment Level ,Technology used,Desgin Capacity (m3/yr),Average Capacity (m3/yr),Volume of  WW actually treated (m3/yr),Disposal Category,Name of the water body/valley/wwtp,Amount disposed (m3/yr),Reuse Category,Actual direct reuse (m3/yr),Area of Land Receiving TWW (ha),Scoring classifier,probability classifier,scoring object detection,probability,number of rectangular tanks,number circular tanks,url link
Javier,EG1,El-Berka,Egypt,Cairo,El-Salam Sharkeya,30.189538,31.417016,WWTP,1990,,Operational ,No,Municipal,Max secondary ,Activated Sludge,219000000,116800000,116800000,Surface water,Bilbeis drain,116800000,,0,0,1,0.991396487,Wastewater-Treatment-Facility,0.641092479,1,20,https://cgiar.sharepoint.com/:i:/r/sites/IWMI-E-ReWater/Shared%20Documents/Pilar%201%20-%20AI/images/Re_Train/Javier_Database_Image/images_Egypt/Javier_Egypt_EG1_map_zoom_17.tif?csf=1&web=1&e=TJ9F3O
Javier,EG2,Hikstep,Egypt,,El Shorouk,30.13820214,31.58706137,WWTP,1995,1995,Operational ,Yes,Municipal,Max tertiary ,,9855000,7300000,7300000,,,0,Landscape irrigation,7300000,336,1,0.999393821,Wastewater-Treatment-Facility,0.77849561,2,3,https://cgiar.sharepoint.com/:i:/r/sites/IWMI-E-ReWater/Shared%20Documents/Pilar%201%20-%20AI/images/Re_Train/Javier_Database_Image/images_Egypt/Javier_Egypt_EG2_map_zoom_17.tif?csf=1&web=1&e=TJ9F3O
Javier,EG3,El Shorouk,Egypt,,El Shorouk,30.13122449,31.58826297,WWTP,2014,2014,Operational ,Yes,Municipal,Max tertiary ,,21900000,12775000,12775000,,,0,Landscape irrigation,12775000,504,1,0.976526201,Wastewater-Treatment-Facility,0.763765514,4,0,https://cgiar.sharepoint.com/:i:/r/sites/IWMI-E-ReWater/Shared%20Documents/Pilar%201%20-%20AI/images/Re_Train/Javier_Database_Image/images_Egypt/Javier_Egypt_EG3_map_zoom_17.tif?csf=1&web=1&e=TJ9F3O
Javier,EG4,Orosqualia,Egypt,,Cairo Desert,29.908054,31.640336,WWTP,2013,2013,Operational ,Yes,Municipal,Max secondary ,,91250000,73000000,73000000,Surface water,,12976480,Agricultural and/or forestry irrigation and landscape irrigation,60023520,2763.6,1,0.997772872,Wastewater-Treatment-Facility,0.766857982,3,20,https://cgiar.sharepoint.com/:i:/r/sites/IWMI-E-ReWater/Shared%20Documents/Pilar%201%20-%20AI/images/Re_Train/Javier_Database_Image/images_Egypt/Javier_Egypt_EG4_map_zoom_17.tif?csf=1&web=1&e=TJ9F3O
Javier,EG5,Badr,Egypt,,Badr City,30.159167,31.775556,WWTP,1996,1996,Operational ,Yes,Municipal,Max tertiary ,,14600000,14600000,14600000,Surface water,,10037500,Agricultural and/or forestry irrigation and landscape irrigation,4562500,210,1,0.967949092,Wastewater-Treatment-Facility,0.690709412,10,0,https://cgiar.sharepoint.com/:i:/r/sites/IWMI-E-ReWater/Shared%20Documents/Pilar%201%20-%20AI/images/Re_Train/Javier_Database_Image/images_Egypt/Javier_Egypt_EG5_map_zoom_17.tif?csf=1&web=1&e=TJ9F3O
Javier,EG6,Robiki ,Egypt,,Badr City,30.179428,31.778365,WWTP,2017,2017,Operational ,No,Municipal,Max secondary ,,2920000,5110000,5110000,,,5110000,Industrial use ,0,0,1,0.998075962,Wastewater-Treatment-Facility,0.606661975,4,2,https://cgiar.sharepoint.com/:i:/r/sites/IWMI-E-ReWater/Shared%20Documents/Pilar%201%20-%20AI/images/Re_Train/Javier_Database_Image/images_Egypt/Javier_Egypt_EG6_map_zoom_17.tif?csf=1&web=1&e=TJ9F3O
Javier,EG7,Madinaty,Egypt,,Madinaty,30.08181869,31.69393986,WWTP,2015,2015,Operational,Yes,Municipal,Max tertiary,,14600000,14600000,14600000,,,0,Landscape irrigation,14600000,,1,0.994697571,Wastewater-Treatment-Facility,0.767919481,5,8,https://cgiar.sharepoint.com/:i:/r/sites/IWMI-E-ReWater/Shared%20Documents/Pilar%201%20-%20AI/images/Re_Train/Javier_Database_Image/images_Egypt/Javier_Egypt_EG7_map_zoom_17.tif?csf=1&web=1&e=TJ9F3O
Javier,EG8,Pureaqua ,Egypt,,Cairo,30.0630356,31.24816156,Municipality,2015,2015,Operational,Yes,Municipal,Max Tertiary,RO,1095000,,,,,,Industrial use ,,0,0,0.999742687,,,,,https://cgiar.sharepoint.com/:i:/r/sites/IWMI-E-ReWater/Shared%20Documents/Pilar%201%20-%20AI/images/Re_Train/Javier_Database_Image/images_Egypt/Javier_Egypt_EG8_map_zoom_17.tif?csf=1&web=1&e=TJ9F3O
Javier,EG9,Al Massa,Egypt,,Nacr City,30.06179397,31.31949279,Municipality,2017,2017,Operational ,Yes,Municipal,Max Tertiary,,365000,,,,,,,,,0,0.991924345,,,,,https://cgiar.sharepoint.com/:i:/r/sites/IWMI-E-ReWater/Shared%20Documents/Pilar%201%20-%20AI/images/Re_Train/Javier_Database_Image/images_Egypt/Javier_Egypt_EG9_map_zoom_17.tif?csf=1&web=1&e=TJ9F3O
Javier,EG10,New Capital Water Treatment Facilities,Egypt,,New Capital,29.99468409,31.73960854,Municipality,2019,2019,Operational,Yes,Municipal,Max tertiary,,1314000,1314000,1314000,,,0,Industrial use ,1314000,0,0,0.989448547,,,2,0,https://cgiar.sharepoint.com/:i:/r/sites/IWMI-E-ReWater/Shared%20Documents/Pilar%201%20-%20AI/images/Re_Train/Javier_Database_Image/images_Egypt/Javier_Egypt_EG10_map_zoom_17.tif?csf=1&web=1&e=TJ9F3O
Javier,EG11,Crown Palm Hills,Egypt,Giza,6th of October,29.99541546,31.04548354,Municipality,2021,2021,Operational ,Yes,Municipal,Max tertiary,,730000,,,,,0,Landscape irrigation,,,0,0.998534679,,,,,https://cgiar.sharepoint.com/:i:/r/sites/IWMI-E-ReWater/Shared%20Documents/Pilar%201%20-%20AI/images/Re_Train/Javier_Database_Image/images_Egypt/Javier_Egypt_EG11_map_zoom_17.tif?csf=1&web=1&e=TJ9F3O
Javier,EG12,Arab Abosaeid,Egypt,,Al Giza Desert,29.748124,31.333269,WWTP,1992,,Operational ,No,Municipal,Max secondary ,Surface Areation,200750000,206225000,206225000,Surface water,El Saf Canal,206225000,,0,0,1,0.994820833,Wastewater-Treatment-Facility,0.56028533,4,28,https://cgiar.sharepoint.com/:i:/r/sites/IWMI-E-ReWater/Shared%20Documents/Pilar%201%20-%20AI/images/Re_Train/Javier_Database_Image/images_Egypt/Javier_Egypt_EG12_map_zoom_17.tif?csf=1&web=1&e=TJ9F3O
Javier,EG13,Arab Abosaeid expansion,Egypt,,Al Giza Desert,29.748124,31.333269,WWTP,2023,,Under Construction,No,Municipal,Max tertiary ,Surface Areation,91250000,,,Surface water,El Saf Canal,,,,,1,0.994820833,Wastewater-Treatment-Facility,0.56028533,4,28,https://cgiar.sharepoint.com/:i:/r/sites/IWMI-E-ReWater/Shared%20Documents/Pilar%201%20-%20AI/images/Re_Train/Javier_Database_Image/images_Egypt/Javier_Egypt_EG13_map_zoom_17.tif?csf=1&web=1&e=TJ9F3O
Javier,EG14,Zinin,Egypt,,Zenein,30.034826,31.180248,WWTP,1965,,Operational ,No,Municipal,Max secondary ,Activated Sludge,120450000,153300000,153300000,Surface water,Nahia Drain,153300000,,0,0,1,0.939833164,Wastewater-Treatment-Facility,0.553805292,3,25,https://cgiar.sharepoint.com/:i:/r/sites/IWMI-E-ReWater/Shared%20Documents/Pilar%201%20-%20AI/images/Re_Train/Javier_Database_Image/images_Egypt/Javier_Egypt_EG14_map_zoom_17.tif?csf=1&web=1&e=TJ9F3O
Javier,EG15,Abo-Rawash,Egypt,,Kerdasa,30.07292769,31.07087291,WWTP,1992,,Operational ,No,Municipal,Max primary ,Activated Sludge,584000000,675250000,675250000,Surface water,"El Remal Drain, then to El Rahawy
Drain",675250000,,0,0,1,0.906282485,Wastewater-Treatment-Facility,0.737568915,4,45,https://cgiar.sharepoint.com/:i:/r/sites/IWMI-E-ReWater/Shared%20Documents/Pilar%201%20-%20AI/images/Re_Train/Javier_Database_Image/images_Egypt/Javier_Egypt_EG15_map_zoom_17.tif?csf=1&web=1&e=TJ9F3O
Javier,EG16,Umm Dinar,Egypt,,Monsha'et El Kanater,30.187177,31.07531,WWTP,2008,,Operational ,No,Municipal,Max secondary ,,3650000,3285000,3285000,Surface water,,3285000,,0,0,1,0.983585,Wastewater-Treatment-Facility,0.617621422,1,3,https://cgiar.sharepoint.com/:i:/r/sites/IWMI-E-ReWater/Shared%20Documents/Pilar%201%20-%20AI/images/Re_Train/Javier_Database_Image/images_Egypt/Javier_Egypt_EG16_map_zoom_17.tif?csf=1&web=1&e=TJ9F3O
Javier,EG17,El-Hawamdia,Egypt,,El-Hawamdia,29.887507,31.249595,WWTP,2008,,Operational ,No,Municipal,Max secondary ,,7300000,7665000,7665000,Surface water,,7665000,,0,0,1,0.999343932,Wastewater-Treatment-Facility,0.873841822,2,12,https://cgiar.sharepoint.com/:i:/r/sites/IWMI-E-ReWater/Shared%20Documents/Pilar%201%20-%20AI/images/Re_Train/Javier_Database_Image/images_Egypt/Javier_Egypt_EG17_map_zoom_17.tif?csf=1&web=1&e=TJ9F3O
Javier,EG18,El-Badrshein,Egypt,,El-Badrshein,29.830718,31.236111,WWTP,2008,,Operational ,No,Municipal,Max secondary ,Trick Filters,7300000,7665000,7665000,Surface water,,7665000,,0,0,1,0.99864012,Wastewater-Treatment-Facility,0.835024476,1,12,https://cgiar.sharepoint.com/:i:/r/sites/IWMI-E-ReWater/Shared%20Documents/Pilar%201%20-%20AI/images/Re_Train/Javier_Database_Image/images_Egypt/Javier_Egypt_EG18_map_zoom_17.tif?csf=1&web=1&e=TJ9F3O
Javier,EG19,Bharms,Egypt,,Monsha'et El Kanater,30.148405,31.103088,WWTP,2007,,Operational ,No,Municipal,Max secondary ,,3650000,1825000,1825000,Surface water,,1825000,,0,0,1,0.985953748,Wastewater-Treatment-Facility,0.883069634,0,4,https://cgiar.sharepoint.com/:i:/r/sites/IWMI-E-ReWater/Shared%20Documents/Pilar%201%20-%20AI/images/Re_Train/Javier_Database_Image/images_Egypt/Javier_Egypt_EG19_map_zoom_17.tif?csf=1&web=1&e=TJ9F3O
Javier,EG20,Atfih,Egypt,,Al Giza Desert,29.381667,31.325278,WWTP,2019,2019,Operational ,No,Municipal,Max secondary ,Oxidation Ponds,12410000,2190000,2190000,,,2190000,Agricultural and/or forestry irrigation,0,126,1,0.966792047,Wastewater-Treatment-Facility,0.593528748,6,0,https://cgiar.sharepoint.com/:i:/r/sites/IWMI-E-ReWater/Shared%20Documents/Pilar%201%20-%20AI/images/Re_Train/Javier_Database_Image/images_Egypt/Javier_Egypt_EG20_map_zoom_17.tif?csf=1&web=1&e=TJ9F3O
Javier,EG21,Dahshore,Egypt,,Badrshein,29.770413,31.245008,WWTP,2019,,Operational ,No,Municipal,Max secondary ,,12775000,1825000,1825000,Surface water,,1825000,,0,0,1,0.988102853,Wastewater-Treatment-Facility,0.884403884,3,0,https://cgiar.sharepoint.com/:i:/r/sites/IWMI-E-ReWater/Shared%20Documents/Pilar%201%20-%20AI/images/Re_Train/Javier_Database_Image/images_Egypt/Javier_Egypt_EG21_map_zoom_17.tif?csf=1&web=1&e=TJ9F3O
Javier,EG22,South October,Egypt,,6th of October,29.922778,30.980556,WWTP,2014,2017,Operational ,Yes,Municipal,Max tertiary ,Activated Sludge,36500000,21900000,21900000,,,6387500,Agricultural and/or forestry irrigation and landscape irrigation,15512500,714,1,0.997886002,Wastewater-Treatment-Facility,0.860379159,11,0,https://cgiar.sharepoint.com/:i:/r/sites/IWMI-E-ReWater/Shared%20Documents/Pilar%201%20-%20AI/images/Re_Train/Javier_Database_Image/images_Egypt/Javier_Egypt_EG22_map_zoom_17.tif?csf=1&web=1&e=TJ9F3O
Javier,EG23,Western October,Egypt,,6th of October,29.901667,30.8575,WWTP,2000,2000,Operational ,Yes,Municipal,Max tertiary ,Activated Sludge,54750000,54750000,54750000,,,0,Agricultural and/or forestry irrigation,54750000,2520,1,0.982676506,Wastewater-Treatment-Facility,0.891993642,12,23,https://cgiar.sharepoint.com/:i:/r/sites/IWMI-E-ReWater/Shared%20Documents/Pilar%201%20-%20AI/images/Re_Train/Javier_Database_Image/images_Egypt/Javier_Egypt_EG23_map_zoom_17.tif?csf=1&web=1&e=TJ9F3O
Javier,EG24,El Saf,Egypt,,Al Saf,29.56661052,31.41456412,WWTP,2023,,Operational ,No,Municipal,Max secondary ,Oxidation Ponds,16425000,,,,,,,,126,0,0.672983885,,,3,0,https://cgiar.sharepoint.com/:i:/r/sites/IWMI-E-ReWater/Shared%20Documents/Pilar%201%20-%20AI/images/Re_Train/Javier_Database_Image/images_Egypt/Javier_Egypt_EG24_map_zoom_17.tif?csf=1&web=1&e=TJ9F3O
Javier,EG25,Masjed Mousa,Egypt,,Atfih,29.34937623,31.27844742,Municipality,2023,,Operational ,No,Municipal,Max tertiary ,,8030000,4745000,,,,,,,,0,0.693336189,,,,,https://cgiar.sharepoint.com/:i:/r/sites/IWMI-E-ReWater/Shared%20Documents/Pilar%201%20-%20AI/images/Re_Train/Javier_Database_Image/images_Egypt/Javier_Egypt_EG25_map_zoom_17.tif?csf=1&web=1&e=TJ9F3O
Javier,EG26,Prembel,Egypt,,El Wahat El Bahariya,29.31623935,31.27396381,WWTP,2023,,Operational ,No,Municipal,Max tertiary ,,5475000,,,,,,,,,1,0.977459133,,,1,0,https://cgiar.sharepoint.com/:i:/r/sites/IWMI-E-ReWater/Shared%20Documents/Pilar%201%20-%20AI/images/Re_Train/Javier_Database_Image/images_Egypt/Javier_Egypt_EG26_map_zoom_17.tif?csf=1&web=1&e=TJ9F3O
Javier,EG27,Kafr Taboot,Egypt,,El Ayyat,29.72609421,31.26109377,Municipality,2015,,Operational ,No,Municipal,Max tertiary ,,1095000,,,,,,,,,1,0.633019745,,,,,https://cgiar.sharepoint.com/:i:/r/sites/IWMI-E-ReWater/Shared%20Documents/Pilar%201%20-%20AI/images/Re_Train/Javier_Database_Image/images_Egypt/Javier_Egypt_EG27_map_zoom_17.tif?csf=1&web=1&e=TJ9F3O
Javier,EG28,Kafr Al Waslin,Egypt,,El Wahat El Bahariya,29.43646767,31.29619363,WWTP,2021,,Operational ,No,Municipal,Max tertiary ,,9125000,,,,,,,,,1,0.996121585,,,1,4,https://cgiar.sharepoint.com/:i:/r/sites/IWMI-E-ReWater/Shared%20Documents/Pilar%201%20-%20AI/images/Re_Train/Javier_Database_Image/images_Egypt/Javier_Egypt_EG28_map_zoom_17.tif?csf=1&web=1&e=TJ9F3O
Javier,EG29,Balqus,Egypt,Qalyubia,Shubra El Kheima,30.160678,31.298328,WWTP,1995,,Operational ,No,Municipal,Max secondary ,Activated Sludge,219000000,158775000,158775000,Surface water,Shebin el-Kanater drain,158775000,,0,0,1,0.84318769,Wastewater-Treatment-Facility,0.83421433,3,30,https://cgiar.sharepoint.com/:i:/r/sites/IWMI-E-ReWater/Shared%20Documents/Pilar%201%20-%20AI/images/Re_Train/Javier_Database_Image/images_Egypt/Javier_Egypt_EG29_map_zoom_17.tif?csf=1&web=1&e=TJ9F3O
Javier,EG30,Banha,Egypt,,Banha,30.431704,31.162459,WWTP,2004,,Operational ,No,Municipal,Max secondary ,Surface Areation,25550000,29200000,29200000,Surface water,El Mazraa,29200000,,0,0,1,0.997721493,Wastewater-Treatment-Facility,0.869497538,8,15,https://cgiar.sharepoint.com/:i:/r/sites/IWMI-E-ReWater/Shared%20Documents/Pilar%201%20-%20AI/images/Re_Train/Javier_Database_Image/images_Egypt/Javier_Egypt_EG30_map_zoom_17.tif?csf=1&web=1&e=TJ9F3O
Javier,EG31,Kafr Moys,Egypt,,Banha,30.468157,31.235931,WWTP,2008,,Operational ,No,Municipal,Max secondary ,,547500,657000,657000,Surface water,Met Eazed,657000,,0,0,1,0.998563826,Wastewater-Treatment-Facility,0.733201325,0,2,https://cgiar.sharepoint.com/:i:/r/sites/IWMI-E-ReWater/Shared%20Documents/Pilar%201%20-%20AI/images/Re_Train/Javier_Database_Image/images_Egypt/Javier_Egypt_EG31_map_zoom_17.tif?csf=1&web=1&e=TJ9F3O
Javier,EG32,Dmalo,Egypt,,Banha,30.514112,31.196018,WWTP,2014,,Operational ,No,Municipal,Max secondary ,,2190000,2190000,2190000,Surface water,,2190000,,0,0,1,0.999472201,Wastewater-Treatment-Facility,0.886126816,5,0,https://cgiar.sharepoint.com/:i:/r/sites/IWMI-E-ReWater/Shared%20Documents/Pilar%201%20-%20AI/images/Re_Train/Javier_Database_Image/images_Egypt/Javier_Egypt_EG32_map_zoom_17.tif?csf=1&web=1&e=TJ9F3O
Javier,EG33,Kafr shukr ,Egypt,,Kafr shukr ,30.52164,31.276824,WWTP,1997,,Operational ,No,Municipal,Max secondary ,Surface Areation,3650000,4380000,4380000,Surface water,Al-Walka,4380000,,0,0,1,0.999560177,Wastewater-Treatment-Facility,0.91772151,3,2,https://cgiar.sharepoint.com/:i:/r/sites/IWMI-E-ReWater/Shared%20Documents/Pilar%201%20-%20AI/images/Re_Train/Javier_Database_Image/images_Egypt/Javier_Egypt_EG33_map_zoom_17.tif?csf=1&web=1&e=TJ9F3O
Javier,EG34,Kafr Shukr extention,Egypt,,Kafr shukr ,30.52164,31.276824,WWTP,2015,,Operational ,No,Municipal,Max secondary ,Surface Areation,7300000,5840000,5840000,Surface water,Al-Walka,5840000,,0,0,1,0.999560177,Wastewater-Treatment-Facility,0.91772151,3,2,https://cgiar.sharepoint.com/:i:/r/sites/IWMI-E-ReWater/Shared%20Documents/Pilar%201%20-%20AI/images/Re_Train/Javier_Database_Image/images_Egypt/Javier_Egypt_EG34_map_zoom_17.tif?csf=1&web=1&e=TJ9F3O
Javier,EG35,Meet Kenana,Egypt,,Toukh,30.375376,31.283051,WWTP,2000,,Operational ,No,Municipal,Max secondary ,,730000,1460000,1460000,Surface water,Met Kanana,1460000,,0,0,1,0.99881494,Wastewater-Treatment-Facility,0.809018552,0,3,https://cgiar.sharepoint.com/:i:/r/sites/IWMI-E-ReWater/Shared%20Documents/Pilar%201%20-%20AI/images/Re_Train/Javier_Database_Image/images_Egypt/Javier_Egypt_EG35_map_zoom_17.tif?csf=1&web=1&e=TJ9F3O
Javier,EG36,Ajhur alkubraa,Egypt,,Toukh,30.289861,31.157008,WWTP,2009,,Operational ,No,Municipal,Max secondary ,,2190000,1277500,1277500,Surface water,,1277500,,0,0,1,0.976624191,Wastewater-Treatment-Facility,0.541277885,1,4,https://cgiar.sharepoint.com/:i:/r/sites/IWMI-E-ReWater/Shared%20Documents/Pilar%201%20-%20AI/images/Re_Train/Javier_Database_Image/images_Egypt/Javier_Egypt_EG36_map_zoom_17.tif?csf=1&web=1&e=TJ9F3O
Javier,EG37,Wahaisha  in tukh,Egypt,,Toukh,30.354172,31.246337,WWTP,1999,,Operational ,No,Municipal,Max secondary ,,5840000,5840000,5840000,Surface water,,5840000,,0,0,1,0.999676466,Wastewater-Treatment-Facility,0.631244063,2,6,https://cgiar.sharepoint.com/:i:/r/sites/IWMI-E-ReWater/Shared%20Documents/Pilar%201%20-%20AI/images/Re_Train/Javier_Database_Image/images_Egypt/Javier_Egypt_EG37_map_zoom_17.tif?csf=1&web=1&e=TJ9F3O
Javier,EG38,Biltan,Egypt,,Toukh,30.357564,31.170638,WWTP,2012,,Operational ,No,Municipal,Max secondary ,,2920000,1934500,1934500,Surface water,,1934500,,0,0,1,0.999701202,Wastewater-Treatment-Facility,0.798180342,4,0,https://cgiar.sharepoint.com/:i:/r/sites/IWMI-E-ReWater/Shared%20Documents/Pilar%201%20-%20AI/images/Re_Train/Javier_Database_Image/images_Egypt/Javier_Egypt_EG38_map_zoom_17.tif?csf=1&web=1&e=TJ9F3O
Javier,EG39,Qaha,Egypt,,Qaha,30.270361,31.186995,WWTP,2004,,Operational ,No,Municipal,Max secondary ,Extended Areation,3650000,1825000,1825000,Surface water,Qalyubiyah,1825000,,0,0,1,0.999032736,Wastewater-Treatment-Facility,0.871910036,1,2,https://cgiar.sharepoint.com/:i:/r/sites/IWMI-E-ReWater/Shared%20Documents/Pilar%201%20-%20AI/images/Re_Train/Javier_Database_Image/images_Egypt/Javier_Egypt_EG39_map_zoom_17.tif?csf=1&web=1&e=TJ9F3O
Javier,EG40,Susul extention,Egypt,,Shibin el-Qanater,30.272484,31.343094,WWTP,2002,,Operational ,No,Municipal,Max secondary ,Surface Areation,10950000,7300000,7300000,Surface water,Bilbies,7300000,,0,0,1,0.999160647,Wastewater-Treatment-Facility,0.912733138,9,6,https://cgiar.sharepoint.com/:i:/r/sites/IWMI-E-ReWater/Shared%20Documents/Pilar%201%20-%20AI/images/Re_Train/Javier_Database_Image/images_Egypt/Javier_Egypt_EG40_map_zoom_17.tif?csf=1&web=1&e=TJ9F3O
Javier,EG41,Gardens in Qanater,Egypt,,Qanater Al Khayreyah,30.193053,31.126263,WWTP,1997,,Operational ,No,Municipal,Max secondary ,,36500,127750,127750,Surface water,,127750,,0,0,0,0.505354226,,,,,https://cgiar.sharepoint.com/:i:/r/sites/IWMI-E-ReWater/Shared%20Documents/Pilar%201%20-%20AI/images/Re_Train/Javier_Database_Image/images_Egypt/Javier_Egypt_EG41_map_zoom_17.tif?csf=1&web=1&e=TJ9F3O
Javier,EG42,Qalyoub and East Qanater,Egypt,,El Qanater El Khayreya,30.183265,31.175931,WWTP,2004,,Operational ,No,Municipal,Max secondary ,Surface Areation,34675000,50735000,50735000,Surface water,Sntabes,50735000,,0,0,1,0.997792244,Wastewater-Treatment-Facility,0.803022027,2,26,https://cgiar.sharepoint.com/:i:/r/sites/IWMI-E-ReWater/Shared%20Documents/Pilar%201%20-%20AI/images/Re_Train/Javier_Database_Image/images_Egypt/Javier_Egypt_EG42_map_zoom_17.tif?csf=1&web=1&e=TJ9F3O
Javier,EG43,Sirakus,Egypt,,Al Khankah,30.199546,31.331109,WWTP,2006,,Operational ,No,Municipal,Max secondary ,Extended Areation,3650000,3102500,3102500,Surface water,Bilbies,3102500,,0,0,1,0.545251608,Wastewater-Treatment-Facility,0.79148227,1,2,https://cgiar.sharepoint.com/:i:/r/sites/IWMI-E-ReWater/Shared%20Documents/Pilar%201%20-%20AI/images/Re_Train/Javier_Database_Image/images_Egypt/Javier_Egypt_EG43_map_zoom_17.tif?csf=1&web=1&e=TJ9F3O
Javier,EG44,Amyay,Egypt,,Toukh,30.352997,31.136827,WWTP,2015,,Operational ,No,Municipal,Max secondary ,,7300000,3650000,3650000,Surface water,,3650000,,0,0,1,0.997300923,Wastewater-Treatment-Facility,0.747448742,4,0,https://cgiar.sharepoint.com/:i:/r/sites/IWMI-E-ReWater/Shared%20Documents/Pilar%201%20-%20AI/images/Re_Train/Javier_Database_Image/images_Egypt/Javier_Egypt_EG44_map_zoom_17.tif?csf=1&web=1&e=TJ9F3O
Javier,EG45,Shubra Shehab,Egypt,, El Qanater El Khayreya,30.275234,31.119099,WWTP,2018,,Operational ,No,Municipal,Max secondary ,,3285000,2920000,2920000,Surface water,,2920000,,0,0,1,0.999183238,Wastewater-Treatment-Facility,0.888590693,2,5,https://cgiar.sharepoint.com/:i:/r/sites/IWMI-E-ReWater/Shared%20Documents/Pilar%201%20-%20AI/images/Re_Train/Javier_Database_Image/images_Egypt/Javier_Egypt_EG45_map_zoom_17.tif?csf=1&web=1&e=TJ9F3O
Javier,EG46,Alabyari,Egypt,,Toukh,30.371463,31.255742,Municipality,2019,,Operational ,No,Municipal,Max secondary ,,365000,182500,182500,Surface water,,182500,,0,0,1,0.782819927,,,,,https://cgiar.sharepoint.com/:i:/r/sites/IWMI-E-ReWater/Shared%20Documents/Pilar%201%20-%20AI/images/Re_Train/Javier_Database_Image/images_Egypt/Javier_Egypt_EG46_map_zoom_17.tif?csf=1&web=1&e=TJ9F3O
Javier,EG47,Bitamada,Egypt,,Banha,30.429605,31.280609,Municipality,2019,,Operational ,No,Municipal,Max secondary ,,365000,109500,109500,Surface water,,109500,,0,0,0,0.973009288,,,,,https://cgiar.sharepoint.com/:i:/r/sites/IWMI-E-ReWater/Shared%20Documents/Pilar%201%20-%20AI/images/Re_Train/Javier_Database_Image/images_Egypt/Javier_Egypt_EG47_map_zoom_17.tif?csf=1&web=1&e=TJ9F3O
Javier,EG48,El-Gabal El-Asfar ,Egypt,,Al Khankah,30.19976,31.37705,WWTP,1998,1998,Operational ,Yes,Municipal,Max secondary ,Surface Areation,912500000,912500000,912500000,Surface water,Bilbeis ,909762500,Agricultural and/or forestry irrigation,2737500,126,1,0.914128482,Wastewater-Treatment-Facility,0.796759844,3,39,https://cgiar.sharepoint.com/:i:/r/sites/IWMI-E-ReWater/Shared%20Documents/Pilar%201%20-%20AI/images/Re_Train/Javier_Database_Image/images_Egypt/Javier_Egypt_EG48_map_zoom_17.tif?csf=1&web=1&e=TJ9F3O
Javier,EG49,Biltan extention,Egypt,,Toukh,30.357564,31.170638,WWTP,2015,,Operational ,No,Municipal,Max secondary ,,4380000,4380000,4380000,Surface water,,4380000,,0,0,1,0.999701202,Wastewater-Treatment-Facility,0.798180342,4,0,https://cgiar.sharepoint.com/:i:/r/sites/IWMI-E-ReWater/Shared%20Documents/Pilar%201%20-%20AI/images/Re_Train/Javier_Database_Image/images_Egypt/Javier_Egypt_EG49_map_zoom_17.tif?csf=1&web=1&e=TJ9F3O
Javier,EG50,Dmalo extention,Egypt,,Banha,30.514112,31.196018,WWTP,2018,,Operational ,No,Municipal,Max secondary ,,2190000,2190000,2190000,Surface water,,2190000,,0,0,1,0.999472201,Wastewater-Treatment-Facility,0.886126816,5,0,https://cgiar.sharepoint.com/:i:/r/sites/IWMI-E-ReWater/Shared%20Documents/Pilar%201%20-%20AI/images/Re_Train/Javier_Database_Image/images_Egypt/Javier_Egypt_EG50_map_zoom_17.tif?csf=1&web=1&e=TJ9F3O
Javier,EG51,Alqalzam,Egypt,,Shibin el-Qanater,30.367167,31.31479,WWTP,2019,,Operational ,No,Municipal,Max secondary ,,7300000,7300000,7300000,Surface water,,7300000,,0,0,1,0.997243881,,,,,https://cgiar.sharepoint.com/:i:/r/sites/IWMI-E-ReWater/Shared%20Documents/Pilar%201%20-%20AI/images/Re_Train/Javier_Database_Image/images_Egypt/Javier_Egypt_EG51_map_zoom_17.tif?csf=1&web=1&e=TJ9F3O
Javier,EG52,Manayal,Egypt,,Al Khankah,30.225165,31.318088,WWTP,2019,,Operational ,No,Municipal,Max secondary ,,3650000,3650000,3650000,Surface water,,3650000,,0,0,1,0.998837292,Wastewater-Treatment-Facility,0.697672784,2,0,https://cgiar.sharepoint.com/:i:/r/sites/IWMI-E-ReWater/Shared%20Documents/Pilar%201%20-%20AI/images/Re_Train/Javier_Database_Image/images_Egypt/Javier_Egypt_EG52_map_zoom_17.tif?csf=1&web=1&e=TJ9F3O
Javier,EG53,Tunaan,Egypt,,Qalyub,30.234144,31.226983,WWTP,2021,,Operational ,No,Municipal,Max secondary ,,10950000,1460000,1460000,Surface water,,1460000,,0,0,1,0.998933375,Wastewater-Treatment-Facility,0.633721113,9,0,https://cgiar.sharepoint.com/:i:/r/sites/IWMI-E-ReWater/Shared%20Documents/Pilar%201%20-%20AI/images/Re_Train/Javier_Database_Image/images_Egypt/Javier_Egypt_EG53_map_zoom_17.tif?csf=1&web=1&e=TJ9F3O
Javier,EG54, Tukh Extension ,Egypt,,Toukh,30.354172,31.246337,WWTP,2021,,Operational ,No,Municipal,Max secondary ,Surface Areation,5110000,1825000,1825000,Surface water,El-Manzala,1825000,,0,0,1,0.999676466,Wastewater-Treatment-Facility,0.631244063,2,6,https://cgiar.sharepoint.com/:i:/r/sites/IWMI-E-ReWater/Shared%20Documents/Pilar%201%20-%20AI/images/Re_Train/Javier_Database_Image/images_Egypt/Javier_Egypt_EG54_map_zoom_17.tif?csf=1&web=1&e=TJ9F3O
Javier,EG55,Qalyoub extention,Egypt,,El Qanater El Khayreya,30.183265,31.175931,WWTP,2020,,Operational ,No,Municipal,Max secondary ,Surface Areation,16425000,5475000,5475000,Surface water,Sntabes,5475000,,0,0,1,0.997792244,Wastewater-Treatment-Facility,0.803022027,2,26,https://cgiar.sharepoint.com/:i:/r/sites/IWMI-E-ReWater/Shared%20Documents/Pilar%201%20-%20AI/images/Re_Train/Javier_Database_Image/images_Egypt/Javier_Egypt_EG55_map_zoom_17.tif?csf=1&web=1&e=TJ9F3O
Javier,EG56,Ajhur alsughraa,Egypt,,El Qanater El Khayreya,30.261967,31.151609,WWTP,2018,,Operational ,No,Municipal,Max secondary ,,7300000,1825000,1825000,Surface water,,1825000,,0,0,1,0.982430458,,,,,https://cgiar.sharepoint.com/:i:/r/sites/IWMI-E-ReWater/Shared%20Documents/Pilar%201%20-%20AI/images/Re_Train/Javier_Database_Image/images_Egypt/Javier_Egypt_EG56_map_zoom_17.tif?csf=1&web=1&e=TJ9F3O
Javier,EG57,Arab el-Aalekat,Egypt,,Al Khankah,30.27318664,31.34338517,WWTP,2009,,Operational ,No,Municipal,Max secondary ,,3650000,3650000,3650000,Surface water,Bilbeis ,3650000,,0,0,1,0.998383522,Wastewater-Treatment-Facility,0.881241024,8,6,https://cgiar.sharepoint.com/:i:/r/sites/IWMI-E-ReWater/Shared%20Documents/Pilar%201%20-%20AI/images/Re_Train/Javier_Database_Image/images_Egypt/Javier_Egypt_EG57_map_zoom_17.tif?csf=1&web=1&e=TJ9F3O
Javier,EG58,Susul extention in Shebin Qanater,Egypt,,Shibin el-Qanater,30.272484,31.343094,WWTP,2021,,Operational ,No,Municipal,Max secondary ,Surface Areation,23725000,9125000,9125000,Surface water,Bilbeis ,9125000,,0,0,1,0.999160647,Wastewater-Treatment-Facility,0.912733138,9,6,https://cgiar.sharepoint.com/:i:/r/sites/IWMI-E-ReWater/Shared%20Documents/Pilar%201%20-%20AI/images/Re_Train/Javier_Database_Image/images_Egypt/Javier_Egypt_EG58_map_zoom_17.tif?csf=1&web=1&e=TJ9F3O
Javier,EG59,Nubaria Power Plant STP,Egypt,Beheira,Kom Hamada,30.69896494,30.66858038,Municipality,2022,2022,Operational ,Unknown,Municipal,Max tertiary,,146000,,,,,,,,,0,0.988784313,,,1,2,https://cgiar.sharepoint.com/:i:/r/sites/IWMI-E-ReWater/Shared%20Documents/Pilar%201%20-%20AI/images/Re_Train/Javier_Database_Image/images_Egypt/Javier_Egypt_EG59_map_zoom_17.tif?csf=1&web=1&e=TJ9F3O
Javier,EG60,Alkhayraa (Damanhor Main Plant),Egypt,,Damanhor,31.015387,30.450836,WWTP,2000,,Operational ,No,Municipal,Max secondary ,Activated Sludge,25550000,31755000,31755000,Surface water,Alkhary,31755000,,0,0,1,0.997783601,Wastewater-Treatment-Facility,0.741202176,5,20,https://cgiar.sharepoint.com/:i:/r/sites/IWMI-E-ReWater/Shared%20Documents/Pilar%201%20-%20AI/images/Re_Train/Javier_Database_Image/images_Egypt/Javier_Egypt_EG60_map_zoom_17.tif?csf=1&web=1&e=TJ9F3O
Javier,EG61,Manshiat Alhuriya,Egypt,,Damanhour,31.054776,30.494567,WWTP,2000,,Operational ,No,Municipal,Max secondary ,Gravel Filters,4380000,8942500,8942500,Surface water,Al Hessa,8942500,,0,0,1,0.998197258,Wastewater-Treatment-Facility,0.859728277,4,8,https://cgiar.sharepoint.com/:i:/r/sites/IWMI-E-ReWater/Shared%20Documents/Pilar%201%20-%20AI/images/Re_Train/Javier_Database_Image/images_Egypt/Javier_Egypt_EG61_map_zoom_17.tif?csf=1&web=1&e=TJ9F3O
Javier,EG62,Kafr El Dawar,Egypt,,Kafr El Dawwar,31.109621,30.089396,WWTP,1995,,Operational ,No,Municipal,Max secondary ,Activated Sludge,14600000,12775000,12775000,Surface water,Aldashodi,12775000,,0,0,1,0.998867393,Wastewater-Treatment-Facility,0.662596703,3,10,https://cgiar.sharepoint.com/:i:/r/sites/IWMI-E-ReWater/Shared%20Documents/Pilar%201%20-%20AI/images/Re_Train/Javier_Database_Image/images_Egypt/Javier_Egypt_EG62_map_zoom_17.tif?csf=1&web=1&e=TJ9F3O
Javier,EG63,Shubrakhit,Egypt,,Shubrakhit,31.003161,30.714093,WWTP,2008,,Operational ,No,Municipal,Max secondary ,Activated Sludge,5840000,6935000,6935000,Surface water,Shubrakhit,6935000,,0,0,1,0.993952096,Wastewater-Treatment-Facility,0.898219645,6,7,https://cgiar.sharepoint.com/:i:/r/sites/IWMI-E-ReWater/Shared%20Documents/Pilar%201%20-%20AI/images/Re_Train/Javier_Database_Image/images_Egypt/Javier_Egypt_EG63_map_zoom_17.tif?csf=1&web=1&e=TJ9F3O
Javier,EG64,Lydia,Egypt,,Mahmoudiyah,31.193305,30.487051,WWTP,2012,,Operational ,No,Municipal,Max secondary ,Gravel Filters,7300000,12775000,12775000,Surface water,Alattef,12775000,,0,0,1,0.982732117,Wastewater-Treatment-Facility,0.778766513,5,0,https://cgiar.sharepoint.com/:i:/r/sites/IWMI-E-ReWater/Shared%20Documents/Pilar%201%20-%20AI/images/Re_Train/Javier_Database_Image/images_Egypt/Javier_Egypt_EG64_map_zoom_17.tif?csf=1&web=1&e=TJ9F3O
Javier,EG65,Fazara,Egypt,,Mahmoudiyah,31.254676,30.501091,WWTP,2004,,Operational ,No,Municipal,Max secondary ,Extended Ventilation,730000,730000,730000,Surface water,Sedi Okaba,730000,,0,0,1,0.977058947,,,2,0,https://cgiar.sharepoint.com/:i:/r/sites/IWMI-E-ReWater/Shared%20Documents/Pilar%201%20-%20AI/images/Re_Train/Javier_Database_Image/images_Egypt/Javier_Egypt_EG65_map_zoom_17.tif?csf=1&web=1&e=TJ9F3O
Javier,EG66,Armon,Egypt,,Mahmoudiyah,31.145351,30.498802,WWTP,1999,,Operational ,No,Municipal,Max secondary ,Extended Ventilation,1095000,1095000,1095000,Surface water,Albabli,1095000,,0,0,1,0.913991332,,,1,1,https://cgiar.sharepoint.com/:i:/r/sites/IWMI-E-ReWater/Shared%20Documents/Pilar%201%20-%20AI/images/Re_Train/Javier_Database_Image/images_Egypt/Javier_Egypt_EG66_map_zoom_17.tif?csf=1&web=1&e=TJ9F3O
Javier,EG67,Edku,Egypt,,Edku,31.307063,30.333149,WWTP,2004,,Operational ,No,Municipal,Max secondary ,Congenital Activated Sludge,7300000,9490000,9490000,Surface water,Tard Al Bosely,9490000,,0,0,1,0.915590703,Wastewater-Treatment-Facility,0.827273905,14,16,https://cgiar.sharepoint.com/:i:/r/sites/IWMI-E-ReWater/Shared%20Documents/Pilar%201%20-%20AI/images/Re_Train/Javier_Database_Image/images_Egypt/Javier_Egypt_EG67_map_zoom_17.tif?csf=1&web=1&e=TJ9F3O
Javier,EG68,Rahmania,Egypt,,Rahmania,31.09382,30.650473,WWTP,2004,,Operational ,No,Municipal,Max secondary ,Oxidation Ponds,3650000,3102500,3102500,Surface water,Emtidad Alrahmania,3102500,,0,0,1,0.993420303,Wastewater-Treatment-Facility,0.856472194,2,2,https://cgiar.sharepoint.com/:i:/r/sites/IWMI-E-ReWater/Shared%20Documents/Pilar%201%20-%20AI/images/Re_Train/Javier_Database_Image/images_Egypt/Javier_Egypt_EG68_map_zoom_17.tif?csf=1&web=1&e=TJ9F3O
Javier,EG69,Delengat,Egypt,,Markaz Ad Delingat,30.85752,30.514106,WWTP,2002,,Operational ,No,Municipal,Max secondary ,Oxidation Ponds,5475000,4380000,4380000,Surface water,Waslat Al delengat,4380000,,0,0,1,0.999540687,Wastewater-Treatment-Facility,0.734509587,2,2,https://cgiar.sharepoint.com/:i:/r/sites/IWMI-E-ReWater/Shared%20Documents/Pilar%201%20-%20AI/images/Re_Train/Javier_Database_Image/images_Egypt/Javier_Egypt_EG69_map_zoom_17.tif?csf=1&web=1&e=TJ9F3O
Javier,EG70,Almasiyn,Egypt,,Markaz Ad Delingat,30.90755,30.525464,WWTP,2007,,Operational ,No,Municipal,Max secondary ,Oxidation Ponds,1095000,730000,730000,Surface water,Al Behi,730000,,0,0,1,0.991548121,Wastewater-Treatment-Facility,0.704109013,1,0,https://cgiar.sharepoint.com/:i:/r/sites/IWMI-E-ReWater/Shared%20Documents/Pilar%201%20-%20AI/images/Re_Train/Javier_Database_Image/images_Egypt/Javier_Egypt_EG70_map_zoom_17.tif?csf=1&web=1&e=TJ9F3O
Javier,EG71,Etay albarud,Egypt,,Etai El Baroud,30.885961,30.687988,WWTP,2005,,Operational ,No,Municipal,Max secondary ,Oxidation Ponds,5475000,6205000,6205000,Surface water,Etai El Baroud,6205000,,0,0,1,0.999626398,Wastewater-Treatment-Facility,0.862111092,2,2,https://cgiar.sharepoint.com/:i:/r/sites/IWMI-E-ReWater/Shared%20Documents/Pilar%201%20-%20AI/images/Re_Train/Javier_Database_Image/images_Egypt/Javier_Egypt_EG71_map_zoom_17.tif?csf=1&web=1&e=TJ9F3O
Javier,EG72,Waked,Egypt,,Kom Hamada,30.681019,30.735173,WWTP,1992,,Operational ,No,Municipal,Max secondary ,Oxidization Ponds,1095000,912500,912500,Surface water,Tahrir 13,912500,,0,0,1,0.998955369,,,1,0,https://cgiar.sharepoint.com/:i:/r/sites/IWMI-E-ReWater/Shared%20Documents/Pilar%201%20-%20AI/images/Re_Train/Javier_Database_Image/images_Egypt/Javier_Egypt_EG72_map_zoom_17.tif?csf=1&web=1&e=TJ9F3O
Javier,EG73,Housh Eissa,Egypt,,Housh Eissa,30.891475,30.308108,WWTP,2004,,Operational ,No,Municipal,Max secondary ,Congenital Activated Sludge,7300000,7117500,7117500,Surface water,Seidi Salem,7117500,,0,0,1,0.998647511,Wastewater-Treatment-Facility,0.83858639,2,8,https://cgiar.sharepoint.com/:i:/r/sites/IWMI-E-ReWater/Shared%20Documents/Pilar%201%20-%20AI/images/Re_Train/Javier_Database_Image/images_Egypt/Javier_Egypt_EG73_map_zoom_17.tif?csf=1&web=1&e=TJ9F3O
Javier,EG74,El Kom el-Akhdar,Egypt,,Housh Eissa,30.955846,30.30587,WWTP,2004,,Operational ,No,Municipal,Max secondary ,Oxidation Ponds,730000,547500,547500,Surface water,Gebaris Alghrbi,547500,,0,0,1,0.998210788,Wastewater-Treatment-Facility,0.811155438,1,1,https://cgiar.sharepoint.com/:i:/r/sites/IWMI-E-ReWater/Shared%20Documents/Pilar%201%20-%20AI/images/Re_Train/Javier_Database_Image/images_Egypt/Javier_Egypt_EG74_map_zoom_17.tif?csf=1&web=1&e=TJ9F3O
Javier,EG75,Abu Humus,Egypt,,Abu Humus,31.088963,30.299635,WWTP,2005,,Operational ,No,Municipal,Max secondary ,Extended Areation,7300000,6387500,6387500,Surface water,Abu Homos,6387500,,0,0,1,0.999652028,Wastewater-Treatment-Facility,0.869719565,4,9,https://cgiar.sharepoint.com/:i:/r/sites/IWMI-E-ReWater/Shared%20Documents/Pilar%201%20-%20AI/images/Re_Train/Javier_Database_Image/images_Egypt/Javier_Egypt_EG75_map_zoom_17.tif?csf=1&web=1&e=TJ9F3O
Javier,EG76,barakat ghataas,Egypt,,Abu Humus,31.143601,30.296294,WWTP,2008,,Operational ,No,Municipal,Max secondary ,,3650000,2007500,2007500,Surface water,Barseeq,2007500,,0,0,1,0.999750197,Wastewater-Treatment-Facility,0.78107512,2,3,https://cgiar.sharepoint.com/:i:/r/sites/IWMI-E-ReWater/Shared%20Documents/Pilar%201%20-%20AI/images/Re_Train/Javier_Database_Image/images_Egypt/Javier_Egypt_EG76_map_zoom_17.tif?csf=1&web=1&e=TJ9F3O
Javier,EG77,Basantaway,Egypt,,Abu Humus,31.132307,30.359667,WWTP,2008,,Operational ,No,Municipal,Max secondary ,,3650000,1825000,1825000,Surface water,"Faraa el-
Ghezlan",1825000,,0,0,1,0.979605615,Wastewater-Treatment-Facility,0.863760591,3,4,https://cgiar.sharepoint.com/:i:/r/sites/IWMI-E-ReWater/Shared%20Documents/Pilar%201%20-%20AI/images/Re_Train/Javier_Database_Image/images_Egypt/Javier_Egypt_EG77_map_zoom_17.tif?csf=1&web=1&e=TJ9F3O
Javier,EG78,Nekal Al Enab,Egypt,,Itay El Barud,30.925854,30.780472,WWTP,2000,,Operational ,No,Municipal,Max secondary ,Oxidization Ponds,1095000,1916250,1916250,Surface water,Al Amir,1916250,,0,0,1,0.998575091,,,,,https://cgiar.sharepoint.com/:i:/r/sites/IWMI-E-ReWater/Shared%20Documents/Pilar%201%20-%20AI/images/Re_Train/Javier_Database_Image/images_Egypt/Javier_Egypt_EG78_map_zoom_17.tif?csf=1&web=1&e=TJ9F3O
Javier,EG79,Kom Hamada,Egypt,,Kom Hamada,30.750891,30.686086,WWTP,2008,,Operational ,No,Municipal,Max secondary ,Oxidation Ponds,5475000,10767500,10767500,Surface water,Kom Hamada,10767500,,0,0,1,0.998835981,Wastewater-Treatment-Facility,0.861523509,2,2,https://cgiar.sharepoint.com/:i:/r/sites/IWMI-E-ReWater/Shared%20Documents/Pilar%201%20-%20AI/images/Re_Train/Javier_Database_Image/images_Egypt/Javier_Egypt_EG79_map_zoom_17.tif?csf=1&web=1&e=TJ9F3O
Javier,EG80,Rashid,Egypt,, Rosetta,31.390749,30.369214,WWTP,2008,,Operational ,No,Municipal,Max secondary ,,7300000,6570000,6570000,Surface water,,6570000,,0,0,1,0.99974376,Wastewater-Treatment-Facility,0.834530354,7,4,https://cgiar.sharepoint.com/:i:/r/sites/IWMI-E-ReWater/Shared%20Documents/Pilar%201%20-%20AI/images/Re_Train/Javier_Database_Image/images_Egypt/Javier_Egypt_EG80_map_zoom_17.tif?csf=1&web=1&e=TJ9F3O
Javier,EG81,shirnob,Egypt,,Damanhour,31.00557,30.580659,WWTP,2011,,Operational ,No,Municipal,Max secondary ,,1825000,2007500,2007500,Surface water,,2007500,,0,0,1,0.719527721,Wastewater-Treatment-Facility,0.712917209,2,3,https://cgiar.sharepoint.com/:i:/r/sites/IWMI-E-ReWater/Shared%20Documents/Pilar%201%20-%20AI/images/Re_Train/Javier_Database_Image/images_Egypt/Javier_Egypt_EG81_map_zoom_17.tif?csf=1&web=1&e=TJ9F3O
Javier,EG82,Kom altarifaya,Egypt,,Kafr El Dawwar,31.229791,30.140584,WWTP,2008,,Operational ,No,Municipal,Max secondary ,Extended Ventilation,730000,730000,730000,Surface water,Hod Al-Zafaran,730000,,0,0,1,0.977275908,Wastewater-Treatment-Facility,0.657962859,7,2,https://cgiar.sharepoint.com/:i:/r/sites/IWMI-E-ReWater/Shared%20Documents/Pilar%201%20-%20AI/images/Re_Train/Javier_Database_Image/images_Egypt/Javier_Egypt_EG82_map_zoom_17.tif?csf=1&web=1&e=TJ9F3O
Javier,EG83,Dharia,Egypt,,Itay El Barud,30.839187,30.753444,WWTP,2013,,Operational ,No,Municipal,Max secondary ,,2190000,1186250,1186250,Surface water,,1186250,,0,0,1,0.996314228,Wastewater-Treatment-Facility,0.913873971,2,0,https://cgiar.sharepoint.com/:i:/r/sites/IWMI-E-ReWater/Shared%20Documents/Pilar%201%20-%20AI/images/Re_Train/Javier_Database_Image/images_Egypt/Javier_Egypt_EG83_map_zoom_17.tif?csf=1&web=1&e=TJ9F3O
Javier,EG84,Wadi Natrun,Egypt,,Natrn Valley,30.358225,30.328865,WWTP,2014,,Operational ,No,Municipal,Max secondary ,,7300000,2737500,2737500,,,2737500,,0,0,1,0.994405866,Wastewater-Treatment-Facility,0.767447948,6,0,https://cgiar.sharepoint.com/:i:/r/sites/IWMI-E-ReWater/Shared%20Documents/Pilar%201%20-%20AI/images/Re_Train/Javier_Database_Image/images_Egypt/Javier_Egypt_EG84_map_zoom_17.tif?csf=1&web=1&e=TJ9F3O
Javier,EG85,Najila,Egypt,,Kom Hamada,30.735514,30.758316,WWTP,2019,,Operational ,No,Municipal,Max secondary ,,3650000,912500,912500,Surface water,,912500,,0,0,1,0.999870896,Wastewater-Treatment-Facility,0.833514452,4,1,https://cgiar.sharepoint.com/:i:/r/sites/IWMI-E-ReWater/Shared%20Documents/Pilar%201%20-%20AI/images/Re_Train/Javier_Database_Image/images_Egypt/Javier_Egypt_EG85_map_zoom_17.tif?csf=1&web=1&e=TJ9F3O
Javier,EG86,Srnbay,Egypt,,Mahmoudiyah,31.171478,30.567345,WWTP,2019,,Operational ,No,Municipal,Max secondary ,,2190000,912500,912500,Surface water,,912500,,0,0,1,0.996638656,Wastewater-Treatment-Facility,0.794847369,2,0,https://cgiar.sharepoint.com/:i:/r/sites/IWMI-E-ReWater/Shared%20Documents/Pilar%201%20-%20AI/images/Re_Train/Javier_Database_Image/images_Egypt/Javier_Egypt_EG86_map_zoom_17.tif?csf=1&web=1&e=TJ9F3O
Javier,EG87,Alwafayiya,Egypt,,Delingat,30.754297,30.594986,WWTP,2015,,Operational ,No,Municipal,Max secondary ,,2190000,1095000,1095000,Surface water,,1095000,,0,0,1,0.98046118,Wastewater-Treatment-Facility,0.864363253,2,0,https://cgiar.sharepoint.com/:i:/r/sites/IWMI-E-ReWater/Shared%20Documents/Pilar%201%20-%20AI/images/Re_Train/Javier_Database_Image/images_Egypt/Javier_Egypt_EG87_map_zoom_17.tif?csf=1&web=1&e=TJ9F3O
Javier,EG88,Samiha,Egypt,,Abu Humus,31.068502,30.392837,WWTP,2020,,Operational ,No,Municipal,Max secondary ,,182500,182500,182500,Surface water,,182500,,0,0,0,0.604364812,,,,,https://cgiar.sharepoint.com/:i:/r/sites/IWMI-E-ReWater/Shared%20Documents/Pilar%201%20-%20AI/images/Re_Train/Javier_Database_Image/images_Egypt/Javier_Egypt_EG88_map_zoom_17.tif?csf=1&web=1&e=TJ9F3O
Javier,EG89,Shobaki,Egypt,,Damanhour,31.09905,30.420909,WWTP,2020,,Operational ,No,Municipal,Max secondary ,,182500,91250,91250,Surface water,,91250,,0,0,1,0.876631975,,,,,https://cgiar.sharepoint.com/:i:/r/sites/IWMI-E-ReWater/Shared%20Documents/Pilar%201%20-%20AI/images/Re_Train/Javier_Database_Image/images_Egypt/Javier_Egypt_EG89_map_zoom_17.tif?csf=1&web=1&e=TJ9F3O
Javier,EG90,Kom alnasi,Egypt,,Abu Humus,31.178691,30.231959,WWTP,2020,,Operational ,No,Municipal,Max secondary ,,365000,273750,273750,Surface water,,273750,,0,0,1,0.889478505,,,,,https://cgiar.sharepoint.com/:i:/r/sites/IWMI-E-ReWater/Shared%20Documents/Pilar%201%20-%20AI/images/Re_Train/Javier_Database_Image/images_Egypt/Javier_Egypt_EG90_map_zoom_17.tif?csf=1&web=1&e=TJ9F3O
Javier,EG91,Al Briegat,Egypt,,Kom Hamada,30.513132,30.828713,WWTP,2020,,Operational ,No,Municipal,Max secondary ,,2737500,912500,912500,Surface water,,912500,,0,0,1,0.999013305,Wastewater-Treatment-Facility,0.9387151,3,2,https://cgiar.sharepoint.com/:i:/r/sites/IWMI-E-ReWater/Shared%20Documents/Pilar%201%20-%20AI/images/Re_Train/Javier_Database_Image/images_Egypt/Javier_Egypt_EG91_map_zoom_17.tif?csf=1&web=1&e=TJ9F3O
Javier,EG92,El Gharbia,Egypt,Alexandria,Port al-Basal,31.157729,29.878498,WWTP,1993,,Operational ,No,Municipal,Max primary ,,168630000,164250000,164250000,Surface water, lake Mariout,164250000,,0,0,1,0.936080456,,,3,0,https://cgiar.sharepoint.com/:i:/r/sites/IWMI-E-ReWater/Shared%20Documents/Pilar%201%20-%20AI/images/Re_Train/Javier_Database_Image/images_Egypt/Javier_Egypt_EG92_map_zoom_17.tif?csf=1&web=1&e=TJ9F3O
Javier,EG93,Mubarak housing plant,Egypt,,Amreya 1,31.027818,29.856567,WWTP,1999,,Operational ,No,Municipal,Max secondary ,,5475000,5475000,5475000,Surface water,"Amriah
Drainage to
Med",5475000,,0,0,1,0.969464302,Wastewater-Treatment-Facility,0.772821903,4,0,https://cgiar.sharepoint.com/:i:/r/sites/IWMI-E-ReWater/Shared%20Documents/Pilar%201%20-%20AI/images/Re_Train/Javier_Database_Image/images_Egypt/Javier_Egypt_EG93_map_zoom_17.tif?csf=1&web=1&e=TJ9F3O
Javier,EG94,Kilo 26 plant,Egypt,,Amreya 1,31.043611,29.7025,WWTP,2008,2008,Operational ,Yes,Municipal,Max secondary ,,1460000,1460000,1460000,,,0,Landscape irrigation,1460000,67.2,1,0.664604962,Wastewater-Treatment-Facility,0.729506016,1,0,https://cgiar.sharepoint.com/:i:/r/sites/IWMI-E-ReWater/Shared%20Documents/Pilar%201%20-%20AI/images/Re_Train/Javier_Database_Image/images_Egypt/Javier_Egypt_EG94_map_zoom_17.tif?csf=1&web=1&e=TJ9F3O
Javier,EG95,Alsuywf,Egypt,,El Raml 2,"31.204702,",30.000993,WWTP,2008,,Operational ,No,Municipal,Max tertiary ,Extended aeration,2555000,2555000,2555000,Surface water,"Amriah
Drainage to
Med",2555000,,0,0,0,0.97825259,,,0,2,https://cgiar.sharepoint.com/:i:/r/sites/IWMI-E-ReWater/Shared%20Documents/Pilar%201%20-%20AI/images/Re_Train/Javier_Database_Image/images_Egypt/Javier_Egypt_EG95_map_zoom_17.tif?csf=1&web=1&e=TJ9F3O
Javier,EG96,Jalal Ibrahim plant,Egypt,,Montaza 1,31.230887,29.999015,WWTP,2008,,Operational ,No,Municipal,Max secondary ,Extended aeration,29200,36500,36500,Surface water,El Kalaa drain,36500,,0,0,0,0.993923008,,,,,https://cgiar.sharepoint.com/:i:/r/sites/IWMI-E-ReWater/Shared%20Documents/Pilar%201%20-%20AI/images/Re_Train/Javier_Database_Image/images_Egypt/Javier_Egypt_EG96_map_zoom_17.tif?csf=1&web=1&e=TJ9F3O
Javier,EG97,Al -maemura,Egypt,,Alexandria,31.246576,30.064837,WWTP,2008,,Operational ,No,Municipal,Max secondary ,Oxidation Ponds,3650000,5475000,5475000,Surface water,Abu Keer,5475000,,0,0,1,0.99948287,Wastewater-Treatment-Facility,0.840189993,1,0,https://cgiar.sharepoint.com/:i:/r/sites/IWMI-E-ReWater/Shared%20Documents/Pilar%201%20-%20AI/images/Re_Train/Javier_Database_Image/images_Egypt/Javier_Egypt_EG97_map_zoom_17.tif?csf=1&web=1&e=TJ9F3O
Javier,EG98,Al -maemura extention,Egypt,,Alexandria,31.246576,30.064837,WWTP,2015,,Operational ,No,Municipal,Max secondary ,Oxidation Ponds,4562500,3285000,3285000,Surface water,Abu Keer,3285000,,0,0,1,0.99948287,Wastewater-Treatment-Facility,0.840189993,1,0,https://cgiar.sharepoint.com/:i:/r/sites/IWMI-E-ReWater/Shared%20Documents/Pilar%201%20-%20AI/images/Re_Train/Javier_Database_Image/images_Egypt/Javier_Egypt_EG98_map_zoom_17.tif?csf=1&web=1&e=TJ9F3O
Javier,EG99,Khurshid and Zawaida,Egypt,,Montaza 1,31.205519,30.039911,WWTP,2009,,Operational ,No,Municipal,Max secondary ,,5475000,2920000,2920000,Surface water,Abu Keer,2920000,,0,0,1,0.9940328,Wastewater-Treatment-Facility,0.842482984,8,0,https://cgiar.sharepoint.com/:i:/r/sites/IWMI-E-ReWater/Shared%20Documents/Pilar%201%20-%20AI/images/Re_Train/Javier_Database_Image/images_Egypt/Javier_Egypt_EG99_map_zoom_17.tif?csf=1&web=1&e=TJ9F3O
Javier,EG100,Khurshid and Zawaida extention,Egypt,,Montaza 2,31.205519,30.039911,WWTP,2013,,Operational ,No,Municipal,Max secondary ,,12775000,11680000,11680000,Surface water,Abu Keer,11680000,,0,0,1,0.9940328,Wastewater-Treatment-Facility,0.842482984,8,0,https://cgiar.sharepoint.com/:i:/r/sites/IWMI-E-ReWater/Shared%20Documents/Pilar%201%20-%20AI/images/Re_Train/Javier_Database_Image/images_Egypt/Javier_Egypt_EG100_map_zoom_17.tif?csf=1&web=1&e=TJ9F3O
Javier,EG101,Abis 2/8,Egypt,,Amreya 1,31.140707,29.945556,WWTP,2010,,Operational ,No,Municipal,Max secondary ,,1095000,584000,584000,Surface water,,584000,,0,0,1,0.999970436,Wastewater-Treatment-Facility,0.7829445,3,0,https://cgiar.sharepoint.com/:i:/r/sites/IWMI-E-ReWater/Shared%20Documents/Pilar%201%20-%20AI/images/Re_Train/Javier_Database_Image/images_Egypt/Javier_Egypt_EG101_map_zoom_17.tif?csf=1&web=1&e=TJ9F3O
Javier,EG102,Abis 7,Egypt,,Amreya 1,31.141647,29.944821,WWTP,2010,,Operational ,No,Municipal,Max secondary ,,1095000,1095000,1095000,Surface water,,1095000,,0,0,1,0.999957323,Wastewater-Treatment-Facility,0.702544987,3,0,https://cgiar.sharepoint.com/:i:/r/sites/IWMI-E-ReWater/Shared%20Documents/Pilar%201%20-%20AI/images/Re_Train/Javier_Database_Image/images_Egypt/Javier_Egypt_EG102_map_zoom_17.tif?csf=1&web=1&e=TJ9F3O
Javier,EG103,Abis 10,Egypt,,Amreya 1,31.167769,29.962669,WWTP,2009,,Operational ,No,Municipal,Max secondary ,,1095000,365000,365000,Surface water,,365000,,0,0,1,0.632494926,,,2,0,https://cgiar.sharepoint.com/:i:/r/sites/IWMI-E-ReWater/Shared%20Documents/Pilar%201%20-%20AI/images/Re_Train/Javier_Database_Image/images_Egypt/Javier_Egypt_EG103_map_zoom_17.tif?csf=1&web=1&e=TJ9F3O
Javier,EG104,Abis  6/8,Egypt,,Amreya 1,31.123262,29.945299,WWTP,2010,,Operational ,No,Municipal,Max secondary ,,1095000,365000,365000,Surface water,,365000,,0,0,1,0.995678723,Wastewater-Treatment-Facility,0.735111058,1,0,https://cgiar.sharepoint.com/:i:/r/sites/IWMI-E-ReWater/Shared%20Documents/Pilar%201%20-%20AI/images/Re_Train/Javier_Database_Image/images_Egypt/Javier_Egypt_EG104_map_zoom_17.tif?csf=1&web=1&e=TJ9F3O
Javier,EG105,Abis 11/8,Egypt,,Amreya 1,31.114913,29.935239,WWTP,2012,,Operational ,No,Municipal,Max secondary ,,1095000,255500,255500,Surface water,,255500,,0,0,1,0.992767692,,,,,https://cgiar.sharepoint.com/:i:/r/sites/IWMI-E-ReWater/Shared%20Documents/Pilar%201%20-%20AI/images/Re_Train/Javier_Database_Image/images_Egypt/Javier_Egypt_EG105_map_zoom_17.tif?csf=1&web=1&e=TJ9F3O
Javier,EG106,Hanoville,Egypt,,Dekhela,31.125845,29.81879,WWTP,2007,,Operational ,No,Municipal,Max secondary ,,7300000,7300000,7300000,Sea,,7300000,,0,0,1,0.978981793,Wastewater-Treatment-Facility,0.717192292,17,0,https://cgiar.sharepoint.com/:i:/r/sites/IWMI-E-ReWater/Shared%20Documents/Pilar%201%20-%20AI/images/Re_Train/Javier_Database_Image/images_Egypt/Javier_Egypt_EG106_map_zoom_17.tif?csf=1&web=1&e=TJ9F3O
Javier,EG107,Hanoville extention,Egypt,,Dekhela,31.125845,29.81879,WWTP,2009,,Operational ,No,Municipal,Max secondary ,,10950000,10950000,10950000,Sea,,10950000,,0,0,1,0.978981793,Wastewater-Treatment-Facility,0.717192292,17,0,https://cgiar.sharepoint.com/:i:/r/sites/IWMI-E-ReWater/Shared%20Documents/Pilar%201%20-%20AI/images/Re_Train/Javier_Database_Image/images_Egypt/Javier_Egypt_EG107_map_zoom_17.tif?csf=1&web=1&e=TJ9F3O
Javier,EG108,Agamy kilo 21,Egypt,,Amreya 1,31.058903,29.759679,WWTP,2010,,Operational ,No,Municipal,Max secondary ,,67525000,41975000,41975000,Surface water,,41975000,,0,0,1,0.986284137,Wastewater-Treatment-Facility,0.811846912,6,0,https://cgiar.sharepoint.com/:i:/r/sites/IWMI-E-ReWater/Shared%20Documents/Pilar%201%20-%20AI/images/Re_Train/Javier_Database_Image/images_Egypt/Javier_Egypt_EG108_map_zoom_17.tif?csf=1&web=1&e=TJ9F3O
Javier,EG109,The German plant,Egypt,,Amreya 1,31.036495,29.863815,WWTP,2016,,Operational ,No,Municipal,Max secondary ,,36500000,36500000,36500000,Surface water,,36500000,,0,0,1,0.670700073,,,4,4,https://cgiar.sharepoint.com/:i:/r/sites/IWMI-E-ReWater/Shared%20Documents/Pilar%201%20-%20AI/images/Re_Train/Javier_Database_Image/images_Egypt/Javier_Egypt_EG109_map_zoom_17.tif?csf=1&web=1&e=TJ9F3O
Javier,EG110,East treatment plant,Egypt,,El Raml 2,31.200666,29.962689,WWTP,2014,,Operational ,No,Municipal,Max secondary ,,292000000,255500000,255500000,Surface water,El-Kalaa,255500000,,0,0,0,0.682873249,,,3,20,https://cgiar.sharepoint.com/:i:/r/sites/IWMI-E-ReWater/Shared%20Documents/Pilar%201%20-%20AI/images/Re_Train/Javier_Database_Image/images_Egypt/Javier_Egypt_EG110_map_zoom_17.tif?csf=1&web=1&e=TJ9F3O
Javier,EG111,Burj Al Arab teriary,Egypt,,Borg El Arab,30.8249646,29.52537703,WWTP,2016,,Operational ,No,Municipal,Max tertiary ,Oxidation Ponds,41975000,7300000,7300000,Surface water,,7300000,,0,0,1,0.997747123,Wastewater-Treatment-Facility,0.832867146,12,3,https://cgiar.sharepoint.com/:i:/r/sites/IWMI-E-ReWater/Shared%20Documents/Pilar%201%20-%20AI/images/Re_Train/Javier_Database_Image/images_Egypt/Javier_Egypt_EG111_map_zoom_17.tif?csf=1&web=1&e=TJ9F3O
Javier,EG112,Burj Al Arab  oxidation ponds,Egypt,,Borg Al Arab Al Gadida,30.92,29.629167,WWTP,2016,2016,Operational ,Yes,Municipal,Max secondary ,Oxidation Ponds,16790000,14600000,14600000,Surface water,,13450250,Agricultural and/or forestry irrigation,1149750,58.8,1,0.926664352,Wastewater-Treatment-Facility,0.597294331,14,0,https://cgiar.sharepoint.com/:i:/r/sites/IWMI-E-ReWater/Shared%20Documents/Pilar%201%20-%20AI/images/Re_Train/Javier_Database_Image/images_Egypt/Javier_Egypt_EG112_map_zoom_17.tif?csf=1&web=1&e=TJ9F3O
Javier,EG113,Maraqia,Egypt,,North Coast,30.95,29.503611,WWTP,2021,2021,Operational ,Yes,Municipal,Max tertiary ,,1168000,1058500,1058500,,,0,Landscape irrigation,1058500,42,1,0.744003594,,,,,https://cgiar.sharepoint.com/:i:/r/sites/IWMI-E-ReWater/Shared%20Documents/Pilar%201%20-%20AI/images/Re_Train/Javier_Database_Image/images_Egypt/Javier_Egypt_EG113_map_zoom_17.tif?csf=1&web=1&e=TJ9F3O
Javier,EG114,Marabila,Egypt,,El Hamam,30.873333,29.346667,WWTP,2021,2021,Operational ,Yes,Municipal,Max tertiary ,,255500,182500,182500,,,0,Landscape irrigation,182500,8.4,0,0.894300282,,,0,1,https://cgiar.sharepoint.com/:i:/r/sites/IWMI-E-ReWater/Shared%20Documents/Pilar%201%20-%20AI/images/Re_Train/Javier_Database_Image/images_Egypt/Javier_Egypt_EG114_map_zoom_17.tif?csf=1&web=1&e=TJ9F3O
Javier,EG115,Binger 1,Egypt,,Amreya 1,30.81326,29.752329,WWTP,2020,,Operational ,No,Municipal,Max tertiary ,,365000,365000,365000,Surface water,,365000,,0,0,1,0.997586489,,,,,https://cgiar.sharepoint.com/:i:/r/sites/IWMI-E-ReWater/Shared%20Documents/Pilar%201%20-%20AI/images/Re_Train/Javier_Database_Image/images_Egypt/Javier_Egypt_EG115_map_zoom_17.tif?csf=1&web=1&e=TJ9F3O
Javier,EG116,Binger 7,Egypt,,Amaria Second,30.830317,29.787382,WWTP,2020,,Operational ,No,Municipal,Max tertiary ,,365000,365000,365000,Surface water,,365000,,0,0,0,0.874456048,,,,,https://cgiar.sharepoint.com/:i:/r/sites/IWMI-E-ReWater/Shared%20Documents/Pilar%201%20-%20AI/images/Re_Train/Javier_Database_Image/images_Egypt/Javier_Egypt_EG116_map_zoom_17.tif?csf=1&web=1&e=TJ9F3O
Javier,EG117,Borg Al Arbab (METITO),Egypt,,Borg Al Arab,30.91688196,29.55126462,Municipality,2023,2023,Operational,Yes,Municipal,Max Tertiary,,481800,481800,,,,0,Landscape irrigation,,,1,0.851403236,,,,,https://cgiar.sharepoint.com/:i:/r/sites/IWMI-E-ReWater/Shared%20Documents/Pilar%201%20-%20AI/images/Re_Train/Javier_Database_Image/images_Egypt/Javier_Egypt_EG117_map_zoom_17.tif?csf=1&web=1&e=TJ9F3O
Javier,EG118,El Mansoura ,Egypt,Dakahlia,Mansoura 1,31.025833,31.355556,WWTP,1993,,Operational ,No,Municipal,Max secondary ,Surface Areation,65700000,65700000,65700000,Surface water,,65700000,,0,0,1,0.998663306,Wastewater-Treatment-Facility,0.790446281,2,41,https://cgiar.sharepoint.com/:i:/r/sites/IWMI-E-ReWater/Shared%20Documents/Pilar%201%20-%20AI/images/Re_Train/Javier_Database_Image/images_Egypt/Javier_Egypt_EG118_map_zoom_17.tif?csf=1&web=1&e=TJ9F3O
Javier,EG119,El Mansoura ,Egypt,,El Mansoura ,31.04255804,31.37665911,Municipality,2022,2022,Operational,Unknown,Municipal,Max Tertiary,,10950000,2920000,,,,,Landscape irrigation,,420,0,0.999777496,,,,,https://cgiar.sharepoint.com/:i:/r/sites/IWMI-E-ReWater/Shared%20Documents/Pilar%201%20-%20AI/images/Re_Train/Javier_Database_Image/images_Egypt/Javier_Egypt_EG119_map_zoom_17.tif?csf=1&web=1&e=TJ9F3O
Javier,EG120,Aga,Egypt,,Aga,30.910278,31.280556,WWTP,1998,,Operational ,No,Municipal,Max secondary ,Surface Areation,5475000,5840000,5840000,Surface water,Aga,5840000,,0,0,1,0.999863744,Wastewater-Treatment-Facility,0.891116858,2,2,https://cgiar.sharepoint.com/:i:/r/sites/IWMI-E-ReWater/Shared%20Documents/Pilar%201%20-%20AI/images/Re_Train/Javier_Database_Image/images_Egypt/Javier_Egypt_EG120_map_zoom_17.tif?csf=1&web=1&e=TJ9F3O
Javier,EG121,Menyat Samnood,Egypt,,Aga,30.944722,31.258611,WWTP,2008,,Operational ,No,Municipal,Max secondary ,Activated Sludge,3650000,3376250,3376250,Surface water,Menyat Samnood,3376250,,0,0,1,0.999800861,Wastewater-Treatment-Facility,0.914513946,2,2,https://cgiar.sharepoint.com/:i:/r/sites/IWMI-E-ReWater/Shared%20Documents/Pilar%201%20-%20AI/images/Re_Train/Javier_Database_Image/images_Egypt/Javier_Egypt_EG121_map_zoom_17.tif?csf=1&web=1&e=TJ9F3O
Javier,EG122,Samaha,Egypt,,Aga,30.870307,31.289542,WWTP,1999,,Operational ,No,Municipal,Max secondary ,,547500,730000,730000,Surface water,Hod Aldalal,730000,,0,0,1,0.997801125,Wastewater-Treatment-Facility,0.739403009,1,0,https://cgiar.sharepoint.com/:i:/r/sites/IWMI-E-ReWater/Shared%20Documents/Pilar%201%20-%20AI/images/Re_Train/Javier_Database_Image/images_Egypt/Javier_Egypt_EG122_map_zoom_17.tif?csf=1&web=1&e=TJ9F3O
Javier,EG123,Mit Damsis,Egypt,,Aga,30.827243,31.238333,WWTP,1999,,Operational ,No,Municipal,Max secondary ,Oxidation Ponds,730000,839500,839500,Surface water,AL Ghraka,839500,,0,0,1,0.999606192,,,4,0,https://cgiar.sharepoint.com/:i:/r/sites/IWMI-E-ReWater/Shared%20Documents/Pilar%201%20-%20AI/images/Re_Train/Javier_Database_Image/images_Egypt/Javier_Egypt_EG123_map_zoom_17.tif?csf=1&web=1&e=TJ9F3O
Javier,EG124,batra,Egypt,,Talkha,31.161667,31.440278,WWTP,2004,,Operational ,No,Municipal,Max secondary ,,730000,1095000,1095000,Surface water,,1095000,,0,0,1,0.996277988,Wastewater-Treatment-Facility,0.831509769,1,1,https://cgiar.sharepoint.com/:i:/r/sites/IWMI-E-ReWater/Shared%20Documents/Pilar%201%20-%20AI/images/Re_Train/Javier_Database_Image/images_Egypt/Javier_Egypt_EG124_map_zoom_17.tif?csf=1&web=1&e=TJ9F3O
Javier,EG125,Mit Al Korama,Egypt,,Talkha,31.028056,31.314722,WWTP,2004,,Operational ,No,Municipal,Max secondary ,Activated Sludge,730000,1058500,1058500,Surface water,Goger,1058500,,0,0,1,0.997311115,Wastewater-Treatment-Facility,0.797498643,2,1,https://cgiar.sharepoint.com/:i:/r/sites/IWMI-E-ReWater/Shared%20Documents/Pilar%201%20-%20AI/images/Re_Train/Javier_Database_Image/images_Egypt/Javier_Egypt_EG125_map_zoom_17.tif?csf=1&web=1&e=TJ9F3O
Javier,EG126,Belqas,Egypt,,Belqas,31.196111,31.371389,WWTP,2007,,Operational ,No,Municipal,Max secondary ,Trick Filters,7300000,6935000,6935000,Surface water,Abu Ammar,6935000,,0,0,1,0.999554813,Wastewater-Treatment-Facility,0.855623424,4,5,https://cgiar.sharepoint.com/:i:/r/sites/IWMI-E-ReWater/Shared%20Documents/Pilar%201%20-%20AI/images/Re_Train/Javier_Database_Image/images_Egypt/Javier_Egypt_EG126_map_zoom_17.tif?csf=1&web=1&e=TJ9F3O
Javier,EG127,Talkha,Egypt,,Talkha,31.068889,31.344444,WWTP,2009,,Operational ,No,Municipal,Max secondary ,Surface Areation,7300000,8395000,8395000,Surface water,,8395000,,0,0,1,0.999809921,Wastewater-Treatment-Facility,0.699714124,4,8,https://cgiar.sharepoint.com/:i:/r/sites/IWMI-E-ReWater/Shared%20Documents/Pilar%201%20-%20AI/images/Re_Train/Javier_Database_Image/images_Egypt/Javier_Egypt_EG127_map_zoom_17.tif?csf=1&web=1&e=TJ9F3O
Javier,EG128,Shirbin,Egypt,,Shirbin,31.2025,31.540833,WWTP,2009,,Operational ,No,Municipal,Max secondary ,Surface Areation,7300000,6570000,6570000,Surface water,,6570000,,0,0,1,0.99972409,Wastewater-Treatment-Facility,0.886375964,5,13,https://cgiar.sharepoint.com/:i:/r/sites/IWMI-E-ReWater/Shared%20Documents/Pilar%201%20-%20AI/images/Re_Train/Javier_Database_Image/images_Egypt/Javier_Egypt_EG128_map_zoom_17.tif?csf=1&web=1&e=TJ9F3O
Javier,EG129,Nabaroh,Egypt,,Nabaroh,31.093889,31.288611,WWTP,2004,,Operational ,No,Municipal,Max secondary ,Activated Sludge,3650000,3467500,3467500,Surface water,Al Badrawy,3467500,,0,0,1,0.998693883,Wastewater-Treatment-Facility,0.877610207,1,2,https://cgiar.sharepoint.com/:i:/r/sites/IWMI-E-ReWater/Shared%20Documents/Pilar%201%20-%20AI/images/Re_Train/Javier_Database_Image/images_Egypt/Javier_Egypt_EG129_map_zoom_17.tif?csf=1&web=1&e=TJ9F3O
Javier,EG130,Gamasa,Egypt,,Gamasa,31.427573,31.541535,WWTP,2008,,Operational ,No,Municipal,Max secondary ,,14600000,6022500,6022500,Surface water,,6022500,,0,0,1,0.998579979,Wastewater-Treatment-Facility,0.84901762,3,9,https://cgiar.sharepoint.com/:i:/r/sites/IWMI-E-ReWater/Shared%20Documents/Pilar%201%20-%20AI/images/Re_Train/Javier_Database_Image/images_Egypt/Javier_Egypt_EG130_map_zoom_17.tif?csf=1&web=1&e=TJ9F3O
Javier,EG131,Senbellawein,Egypt,,Senbellawein,30.864722,31.4625,WWTP,2006,,Operational ,No,Municipal,Max secondary ,Surface Areation,7300000,6570000,6570000,Surface water,Senbellawein,6570000,,0,0,1,0.995699167,Wastewater-Treatment-Facility,0.79507041,3,15,https://cgiar.sharepoint.com/:i:/r/sites/IWMI-E-ReWater/Shared%20Documents/Pilar%201%20-%20AI/images/Re_Train/Javier_Database_Image/images_Egypt/Javier_Egypt_EG131_map_zoom_17.tif?csf=1&web=1&e=TJ9F3O
Javier,EG132,Tami Alamdid,Egypt,,Tamy Al Amdid,30.927346,31.526736,WWTP,2005,,Operational ,No,Municipal,Max secondary ,Activated Sludge,730000,876000,876000,Surface water,Shahin,876000,,0,0,1,0.999054611,Wastewater-Treatment-Facility,0.805731058,1,1,https://cgiar.sharepoint.com/:i:/r/sites/IWMI-E-ReWater/Shared%20Documents/Pilar%201%20-%20AI/images/Re_Train/Javier_Database_Image/images_Egypt/Javier_Egypt_EG132_map_zoom_17.tif?csf=1&web=1&e=TJ9F3O
Javier,EG133,Atmid and Alboha,Egypt,,Mit Ghamr,30.752778,31.336389,WWTP,2007,,Operational ,No,Municipal,Max secondary ,Activated Sludge,3650000,3102500,3102500,Surface water,No.1 Drain,3102500,,0,0,1,0.999705255,Wastewater-Treatment-Facility,0.880076647,1,2,https://cgiar.sharepoint.com/:i:/r/sites/IWMI-E-ReWater/Shared%20Documents/Pilar%201%20-%20AI/images/Re_Train/Javier_Database_Image/images_Egypt/Javier_Egypt_EG133_map_zoom_17.tif?csf=1&web=1&e=TJ9F3O
Javier,EG134,Damas,Egypt,,Mit Ghamr,30.796667,31.310556,WWTP,1998,,Operational ,No,Municipal,Max secondary ,Activated Sludge,730000,730000,730000,Surface water,Om Salma,730000,,0,0,1,0.993580461,Wastewater-Treatment-Facility,0.705669522,1,1,https://cgiar.sharepoint.com/:i:/r/sites/IWMI-E-ReWater/Shared%20Documents/Pilar%201%20-%20AI/images/Re_Train/Javier_Database_Image/images_Egypt/Javier_Egypt_EG134_map_zoom_17.tif?csf=1&web=1&e=TJ9F3O
Javier,EG135,Kom Alnour,Egypt,,Mit Ghamr,30.740278,31.315278,WWTP,2008,,Operational ,No,Municipal,Max secondary ,Activated Sludge,3650000,2482000,2482000,Surface water,Kom Alnour,2482000,,0,0,1,0.999480069,Wastewater-Treatment-Facility,0.922445834,1,2,https://cgiar.sharepoint.com/:i:/r/sites/IWMI-E-ReWater/Shared%20Documents/Pilar%201%20-%20AI/images/Re_Train/Javier_Database_Image/images_Egypt/Javier_Egypt_EG135_map_zoom_17.tif?csf=1&web=1&e=TJ9F3O
Javier,EG136,Oleila,Egypt,,Mit Ghamr,30.7075,31.333889,WWTP,2007,,Operational ,No,Municipal,Max secondary ,,3650000,2555000,2555000,Surface water,,2555000,,0,0,1,0.999178827,Wastewater-Treatment-Facility,0.841582716,3,3,https://cgiar.sharepoint.com/:i:/r/sites/IWMI-E-ReWater/Shared%20Documents/Pilar%201%20-%20AI/images/Re_Train/Javier_Database_Image/images_Egypt/Javier_Egypt_EG136_map_zoom_17.tif?csf=1&web=1&e=TJ9F3O
Javier,EG137,Almataria,Egypt,,Al Daqahleya Desert,31.173056,32.039444,WWTP,2008,,Operational ,No,Municipal,Max secondary ,Activated Sludge,14600000,9125000,9125000,Surface water,Al mataria Al Omomi,9125000,,0,0,1,0.999806225,Wastewater-Treatment-Facility,0.880357146,3,9,https://cgiar.sharepoint.com/:i:/r/sites/IWMI-E-ReWater/Shared%20Documents/Pilar%201%20-%20AI/images/Re_Train/Javier_Database_Image/images_Egypt/Javier_Egypt_EG137_map_zoom_17.tif?csf=1&web=1&e=TJ9F3O
Javier,EG138,Algamalia,Egypt,,Gamaliya,31.153023,31.856126,WWTP,2008,,Operational ,No,Municipal,Max secondary ,Trick Filters,7300000,7227000,7227000,Surface water,Asserw Al Omomi,7227000,,0,0,1,0.99973911,Wastewater-Treatment-Facility,0.863679945,4,10,https://cgiar.sharepoint.com/:i:/r/sites/IWMI-E-ReWater/Shared%20Documents/Pilar%201%20-%20AI/images/Re_Train/Javier_Database_Image/images_Egypt/Javier_Egypt_EG138_map_zoom_17.tif?csf=1&web=1&e=TJ9F3O
Javier,EG139,Al -Manzila,Egypt,,El Manzala,31.135556,31.950556,WWTP,2009,,Operational ,No,Municipal,Max secondary ,,7300000,7482500,7482500,Surface water,Bateen,7482500,,0,0,1,0.999270856,Wastewater-Treatment-Facility,0.822876692,4,10,https://cgiar.sharepoint.com/:i:/r/sites/IWMI-E-ReWater/Shared%20Documents/Pilar%201%20-%20AI/images/Re_Train/Javier_Database_Image/images_Egypt/Javier_Egypt_EG139_map_zoom_17.tif?csf=1&web=1&e=TJ9F3O
Javier,EG140,Alnasayima,Egypt,,Al Daqahleya Desert,31.213611,31.997778,WWTP,2009,,Operational ,No,Municipal,Max secondary ,Surface Areation,365000,365000,365000,Surface water,Altaweel Al bahary,365000,,0,0,0,0.972160757,,,,,https://cgiar.sharepoint.com/:i:/r/sites/IWMI-E-ReWater/Shared%20Documents/Pilar%201%20-%20AI/images/Re_Train/Javier_Database_Image/images_Egypt/Javier_Egypt_EG140_map_zoom_17.tif?csf=1&web=1&e=TJ9F3O
Javier,EG141,Al -kufar aljadid,Egypt,,El Manzala,31.151944,31.831111,WWTP,1997,,Operational ,No,Municipal,Max secondary ,Activated Sludge,730000,912500,912500,Surface water,AL Ebrad,912500,,0,0,1,0.998417258,Wastewater-Treatment-Facility,0.627680659,3,0,https://cgiar.sharepoint.com/:i:/r/sites/IWMI-E-ReWater/Shared%20Documents/Pilar%201%20-%20AI/images/Re_Train/Javier_Database_Image/images_Egypt/Javier_Egypt_EG141_map_zoom_17.tif?csf=1&web=1&e=TJ9F3O
Javier,EG142,El Kurd,Egypt,,El Kurd,31.148889,31.766944,WWTP,1997,,Operational ,No,Municipal,Max secondary ,,2737500,1642500,1642500,Surface water,,1642500,,0,0,1,0.999490738,Wastewater-Treatment-Facility,0.82356447,1,1,https://cgiar.sharepoint.com/:i:/r/sites/IWMI-E-ReWater/Shared%20Documents/Pilar%201%20-%20AI/images/Re_Train/Javier_Database_Image/images_Egypt/Javier_Egypt_EG142_map_zoom_17.tif?csf=1&web=1&e=TJ9F3O
Javier,EG143,Dikirnis,Egypt,,Dikirnis,31.057515,31.579239,WWTP,2005,,Operational ,No,Municipal,Max secondary ,Surface Areation,7300000,7847500,7847500,Surface water,Tal Balh,7847500,,0,0,1,0.999793828,Wastewater-Treatment-Facility,0.903031766,3,10,https://cgiar.sharepoint.com/:i:/r/sites/IWMI-E-ReWater/Shared%20Documents/Pilar%201%20-%20AI/images/Re_Train/Javier_Database_Image/images_Egypt/Javier_Egypt_EG143_map_zoom_17.tif?csf=1&web=1&e=TJ9F3O
Javier,EG144,Salamon Alkamash,Egypt,,El Mansoura,31.064444,31.456389,WWTP,2001,,Operational ,No,Municipal,Max secondary ,Activated Sludge,730000,1131500,1131500,Surface water,Badin,1131500,,0,0,1,0.997127116,Wastewater-Treatment-Facility,0.691564083,2,0,https://cgiar.sharepoint.com/:i:/r/sites/IWMI-E-ReWater/Shared%20Documents/Pilar%201%20-%20AI/images/Re_Train/Javier_Database_Image/images_Egypt/Javier_Egypt_EG144_map_zoom_17.tif?csf=1&web=1&e=TJ9F3O
Javier,EG145,Shaha,Egypt,,El Mansoura,31.095278,31.487778,WWTP,2002,,Operational ,No,Municipal,Max secondary ,Activated Sludge,1095000,832200,832200,Surface water,Al Nezam,832200,,0,0,1,0.991131127,Wastewater-Treatment-Facility,0.816782415,2,0,https://cgiar.sharepoint.com/:i:/r/sites/IWMI-E-ReWater/Shared%20Documents/Pilar%201%20-%20AI/images/Re_Train/Javier_Database_Image/images_Egypt/Javier_Egypt_EG145_map_zoom_17.tif?csf=1&web=1&e=TJ9F3O
Javier,EG146,Damoh,Egypt,,Dikirnis,31.095,31.5525,WWTP,1997,,Operational ,No,Municipal,Max secondary ,Activated Sludge,730000,1277500,1277500,Surface water,Tal Balh,1277500,,0,0,1,0.999518156,Wastewater-Treatment-Facility,0.799152613,1,0,https://cgiar.sharepoint.com/:i:/r/sites/IWMI-E-ReWater/Shared%20Documents/Pilar%201%20-%20AI/images/Re_Train/Javier_Database_Image/images_Egypt/Javier_Egypt_EG146_map_zoom_17.tif?csf=1&web=1&e=TJ9F3O
Javier,EG147,Al -jazira,Egypt,,Dikirnis,31.090498,31.5346,WWTP,2009,,Operational ,No,Municipal,Max secondary ,,730000,620500,620500,Surface water,,620500,,0,0,1,0.99750793,Wastewater-Treatment-Facility,0.701925814,1,1,https://cgiar.sharepoint.com/:i:/r/sites/IWMI-E-ReWater/Shared%20Documents/Pilar%201%20-%20AI/images/Re_Train/Javier_Database_Image/images_Egypt/Javier_Egypt_EG147_map_zoom_17.tif?csf=1&web=1&e=TJ9F3O
Javier,EG148,Ma?allat Damanah,Egypt,,Ma?allat Damanah,31.059167,31.523611,WWTP,2009,,Operational ,No,Municipal,Max secondary ,Surface Areation,730000,1149750,1149750,Surface water,Radwan,1149750,,0,0,1,0.999410033,Wastewater-Treatment-Facility,0.879237652,1,1,https://cgiar.sharepoint.com/:i:/r/sites/IWMI-E-ReWater/Shared%20Documents/Pilar%201%20-%20AI/images/Re_Train/Javier_Database_Image/images_Egypt/Javier_Egypt_EG148_map_zoom_17.tif?csf=1&web=1&e=TJ9F3O
Javier,EG149,Badaye,Egypt,,El Mansoura,31.148611,31.493611,WWTP,2001,,Operational ,No,Municipal,Max secondary ,Activated Sludge,1642500,1660750,1660750,Surface water,Alserw Al Omomi,1660750,,0,0,1,0.981461108,Wastewater-Treatment-Facility,0.588976145,2,0,https://cgiar.sharepoint.com/:i:/r/sites/IWMI-E-ReWater/Shared%20Documents/Pilar%201%20-%20AI/images/Re_Train/Javier_Database_Image/images_Egypt/Javier_Egypt_EG149_map_zoom_17.tif?csf=1&web=1&e=TJ9F3O
Javier,EG150,Al -baramwn,Egypt,,El Mansoura,31.111944,31.443056,WWTP,1995,,Operational ,No,Municipal,Max secondary ,,730000,784750,784750,Surface water,,784750,,0,0,1,0.98020637,Wastewater-Treatment-Facility,0.513465762,2,0,https://cgiar.sharepoint.com/:i:/r/sites/IWMI-E-ReWater/Shared%20Documents/Pilar%201%20-%20AI/images/Re_Train/Javier_Database_Image/images_Egypt/Javier_Egypt_EG150_map_zoom_17.tif?csf=1&web=1&e=TJ9F3O
Javier,EG151,Mit Fatek,Egypt,,El Mansoura,31.076389,31.423333,WWTP,2002,,Operational ,No,Municipal,Max secondary ,Activated Sludge,730000,1189900,1189900,Surface water,Alserw Al Omomi,1189900,,0,0,1,0.984613419,,,3,0,https://cgiar.sharepoint.com/:i:/r/sites/IWMI-E-ReWater/Shared%20Documents/Pilar%201%20-%20AI/images/Re_Train/Javier_Database_Image/images_Egypt/Javier_Egypt_EG151_map_zoom_17.tif?csf=1&web=1&e=TJ9F3O
Javier,EG152,Almokataa,Egypt,,Senbellawein,30.882778,31.568056,WWTP,2002,,Operational ,No,Municipal,Max secondary ,Activated Sludge,1825000,1551250,1551250,Surface water,Om Ghanam,1551250,,0,0,1,0.998006046,Wastewater-Treatment-Facility,0.765140712,2,1,https://cgiar.sharepoint.com/:i:/r/sites/IWMI-E-ReWater/Shared%20Documents/Pilar%201%20-%20AI/images/Re_Train/Javier_Database_Image/images_Egypt/Javier_Egypt_EG152_map_zoom_17.tif?csf=1&web=1&e=TJ9F3O
Javier,EG153,Bani Obaid,Egypt,,Bani Obaid,30.989722,31.671389,WWTP,2011,,Operational ,No,Municipal,Max secondary ,Surface Areation,3650000,2007500,2007500,Surface water,Bark Alazz,2007500,,0,0,1,0.99973017,Wastewater-Treatment-Facility,0.904573619,2,2,https://cgiar.sharepoint.com/:i:/r/sites/IWMI-E-ReWater/Shared%20Documents/Pilar%201%20-%20AI/images/Re_Train/Javier_Database_Image/images_Egypt/Javier_Egypt_EG153_map_zoom_17.tif?csf=1&web=1&e=TJ9F3O
Javier,EG154,Brambal,Egypt,,Menyet El Nasr,31.159444,31.721111,WWTP,2000,,Operational ,No,Municipal,Max secondary ,Activated Sludge,730000,1022000,1022000,Surface water,Berembal,1022000,,0,0,1,0.96265918,,,,,https://cgiar.sharepoint.com/:i:/r/sites/IWMI-E-ReWater/Shared%20Documents/Pilar%201%20-%20AI/images/Re_Train/Javier_Database_Image/images_Egypt/Javier_Egypt_EG154_map_zoom_17.tif?csf=1&web=1&e=TJ9F3O
Javier,EG155,Al -maesara,Egypt,,Belqas,31.226389,31.290278,WWTP,2011,,Operational ,No,Municipal,Max secondary ,,7300000,2555000,2555000,Surface water,,2555000,,0,0,1,0.999872327,Wastewater-Treatment-Facility,0.853418052,1,12,https://cgiar.sharepoint.com/:i:/r/sites/IWMI-E-ReWater/Shared%20Documents/Pilar%201%20-%20AI/images/Re_Train/Javier_Database_Image/images_Egypt/Javier_Egypt_EG155_map_zoom_17.tif?csf=1&web=1&e=TJ9F3O
Javier,EG156,mahalat  anjaq,Egypt,,Shirbin,31.179722,31.538056,WWTP,2011,,Operational ,No,Municipal,Max secondary ,,2920000,2847000,2847000,Surface water,,2847000,,0,0,1,0.99951458,Wastewater-Treatment-Facility,0.832788289,2,0,https://cgiar.sharepoint.com/:i:/r/sites/IWMI-E-ReWater/Shared%20Documents/Pilar%201%20-%20AI/images/Re_Train/Javier_Database_Image/images_Egypt/Javier_Egypt_EG156_map_zoom_17.tif?csf=1&web=1&e=TJ9F3O
Javier,EG157,sahrajat alkubraa,Egypt,,Mit Ghamr,30.627222,31.286667,WWTP,2011,,Operational ,No,Municipal,Max secondary ,,3650000,2080500,2080500,Surface water,,2080500,,0,0,1,0.99973315,Wastewater-Treatment-Facility,0.857227266,1,2,https://cgiar.sharepoint.com/:i:/r/sites/IWMI-E-ReWater/Shared%20Documents/Pilar%201%20-%20AI/images/Re_Train/Javier_Database_Image/images_Egypt/Javier_Egypt_EG157_map_zoom_17.tif?csf=1&web=1&e=TJ9F3O
Javier,EG158,Tilbana,Egypt,,Mansoura,30.976667,31.440278,WWTP,2011,,Operational ,No,Municipal,Max secondary ,,2920000,2190000,2190000,Surface water,,2190000,,0,0,1,0.998354614,,,1,0,https://cgiar.sharepoint.com/:i:/r/sites/IWMI-E-ReWater/Shared%20Documents/Pilar%201%20-%20AI/images/Re_Train/Javier_Database_Image/images_Egypt/Javier_Egypt_EG158_map_zoom_17.tif?csf=1&web=1&e=TJ9F3O
Javier,EG159,Ras Al Khaleej,Egypt,, Shirbin,31.260632,31.652714,WWTP,2013,,Operational ,No,Municipal,Max secondary ,,1095000,1241000,1241000,Surface water,,1241000,,0,0,1,0.952679932,,,0,2,https://cgiar.sharepoint.com/:i:/r/sites/IWMI-E-ReWater/Shared%20Documents/Pilar%201%20-%20AI/images/Re_Train/Javier_Database_Image/images_Egypt/Javier_Egypt_EG159_map_zoom_17.tif?csf=1&web=1&e=TJ9F3O
Javier,EG160,Munia El Nasr,Egypt,,Menyet El Nasr,31.104444,31.678056,WWTP,2013,,Operational ,No,Municipal,Max secondary ,,7300000,3467500,3467500,Surface water,,3467500,,0,0,1,0.998806238,Wastewater-Treatment-Facility,0.880889833,1,12,https://cgiar.sharepoint.com/:i:/r/sites/IWMI-E-ReWater/Shared%20Documents/Pilar%201%20-%20AI/images/Re_Train/Javier_Database_Image/images_Egypt/Javier_Egypt_EG160_map_zoom_17.tif?csf=1&web=1&e=TJ9F3O
Javier,EG161,Met salseel,Egypt,,Met salseel,31.133056,31.799722,WWTP,2013,,Operational ,No,Municipal,Max secondary ,Surface Areation,3650000,2190000,2190000,Surface water,Alkordy,2190000,,0,0,1,0.999798119,Wastewater-Treatment-Facility,0.92470485,2,3,https://cgiar.sharepoint.com/:i:/r/sites/IWMI-E-ReWater/Shared%20Documents/Pilar%201%20-%20AI/images/Re_Train/Javier_Database_Image/images_Egypt/Javier_Egypt_EG161_map_zoom_17.tif?csf=1&web=1&e=TJ9F3O
Javier,EG162,Abo Dawood Al Sabach,Egypt,, Senbellawein,30.913611,31.591389,WWTP,2014,,Operational ,No,Municipal,Max secondary ,,2190000,1460000,1460000,Surface water,,1460000,,0,0,1,0.983278334,Wastewater-Treatment-Facility,0.642896235,2,0,https://cgiar.sharepoint.com/:i:/r/sites/IWMI-E-ReWater/Shared%20Documents/Pilar%201%20-%20AI/images/Re_Train/Javier_Database_Image/images_Egypt/Javier_Egypt_EG162_map_zoom_17.tif?csf=1&web=1&e=TJ9F3O
Javier,EG163,Mayt ghamar,Egypt,,Mit Ghamr,30.703834,31.293412,WWTP,2018,,Operational ,No,Municipal,Max secondary ,Surface Areation,14600000,7300000,7300000,Surface water,,7300000,,0,0,1,0.999729812,Wastewater-Treatment-Facility,0.72733593,7,0,https://cgiar.sharepoint.com/:i:/r/sites/IWMI-E-ReWater/Shared%20Documents/Pilar%201%20-%20AI/images/Re_Train/Javier_Database_Image/images_Egypt/Javier_Egypt_EG163_map_zoom_17.tif?csf=1&web=1&e=TJ9F3O
Javier,EG164,Barq aleizi,Egypt,,Mansoura,31.028056,31.453333,WWTP,2004,,Operational ,No,Municipal,Max secondary ,,730000,1022000,1022000,Surface water,,1022000,,0,0,1,0.998896718,Wastewater-Treatment-Facility,0.714176834,0,1,https://cgiar.sharepoint.com/:i:/r/sites/IWMI-E-ReWater/Shared%20Documents/Pilar%201%20-%20AI/images/Re_Train/Javier_Database_Image/images_Egypt/Javier_Egypt_EG164_map_zoom_17.tif?csf=1&web=1&e=TJ9F3O
Javier,EG165,Sahragat Al Soghra,Egypt,,Aga,30.808889,31.288333,WWTP,2013,,Operational ,No,Municipal,Max secondary ,,1825000,1460000,1460000,Surface water,,1460000,,0,0,1,0.999723256,Wastewater-Treatment-Facility,0.891356051,1,3,https://cgiar.sharepoint.com/:i:/r/sites/IWMI-E-ReWater/Shared%20Documents/Pilar%201%20-%20AI/images/Re_Train/Javier_Database_Image/images_Egypt/Javier_Egypt_EG165_map_zoom_17.tif?csf=1&web=1&e=TJ9F3O
Javier,EG166,Awlad Sabowr,Egypt,,El Manzala,31.17263,31.992614,WWTP,2009,,Operational ,No,Municipal,Max secondary ,,365000,730000,730000,Surface water,,730000,,0,0,1,0.979079366,Wastewater-Treatment-Facility,0.610931098,1,0,https://cgiar.sharepoint.com/:i:/r/sites/IWMI-E-ReWater/Shared%20Documents/Pilar%201%20-%20AI/images/Re_Train/Javier_Database_Image/images_Egypt/Javier_Egypt_EG166_map_zoom_17.tif?csf=1&web=1&e=TJ9F3O
Javier,EG167,Burj alnuwr alhimas,Egypt,,Aga,30.925343,31.330375,WWTP,2019,,Operational ,No,Municipal,Max secondary ,,2920000,912500,912500,Surface water,,912500,,0,0,1,0.999680281,Wastewater-Treatment-Facility,0.863527656,3,0,https://cgiar.sharepoint.com/:i:/r/sites/IWMI-E-ReWater/Shared%20Documents/Pilar%201%20-%20AI/images/Re_Train/Javier_Database_Image/images_Egypt/Javier_Egypt_EG167_map_zoom_17.tif?csf=1&web=1&e=TJ9F3O
Javier,EG168,Damas 2,Egypt,,Mit Ghamr,30.796667,31.310556,WWTP,2010,,Operational ,No,Municipal,Max secondary ,,4380000,2555000,2555000,Surface water,,2555000,,0,0,1,0.993580461,Wastewater-Treatment-Facility,0.705669522,1,1,https://cgiar.sharepoint.com/:i:/r/sites/IWMI-E-ReWater/Shared%20Documents/Pilar%201%20-%20AI/images/Re_Train/Javier_Database_Image/images_Egypt/Javier_Egypt_EG168_map_zoom_17.tif?csf=1&web=1&e=TJ9F3O
Javier,EG169,Manshyet Abdel Rahman,Egypt,,Dikirnis,31.10930048,31.75458088,Municipality,2020,Unknown,,Unknown,Municipal,Unknown,,1095000,,,,,,,,,0,0.998777926,,,,,https://cgiar.sharepoint.com/:i:/r/sites/IWMI-E-ReWater/Shared%20Documents/Pilar%201%20-%20AI/images/Re_Train/Javier_Database_Image/images_Egypt/Javier_Egypt_EG169_map_zoom_17.tif?csf=1&web=1&e=TJ9F3O
Javier,EG170,Arab Zidan,Egypt,,Manzala,31.18441968,32.03181665,Municipality,2022,Unknown,,Unknown,Municipal,Unknown,,1460000,,,,,,,,,0,0.999018431,,,1,0,https://cgiar.sharepoint.com/:i:/r/sites/IWMI-E-ReWater/Shared%20Documents/Pilar%201%20-%20AI/images/Re_Train/Javier_Database_Image/images_Egypt/Javier_Egypt_EG170_map_zoom_17.tif?csf=1&web=1&e=TJ9F3O
Javier,EG171,Alanania,Egypt,Damietta,Alanania,31.384868,31.829293,WWTP,1991,,Operational ,No,Municipal,Max secondary ,Activated Sludge,32850000,36500000,36500000,Surface water,Lake Al-manzala,36500000,,0,0,1,0.998626351,Wastewater-Treatment-Facility,0.701206505,2,14,https://cgiar.sharepoint.com/:i:/r/sites/IWMI-E-ReWater/Shared%20Documents/Pilar%201%20-%20AI/images/Re_Train/Javier_Database_Image/images_Egypt/Javier_Egypt_EG171_map_zoom_17.tif?csf=1&web=1&e=TJ9F3O
Javier,EG172,Ras Al Bar,Egypt,,Ras Al Bar,31.465046,31.796177,WWTP,1993,,Operational ,No,Municipal,Max secondary ,Activated Sludge,18250000,20075000,20075000,Sea,Navigation Canal,20075000,,0,0,1,0.993113816,Wastewater-Treatment-Facility,0.835376441,3,15,https://cgiar.sharepoint.com/:i:/r/sites/IWMI-E-ReWater/Shared%20Documents/Pilar%201%20-%20AI/images/Re_Train/Javier_Database_Image/images_Egypt/Javier_Egypt_EG172_map_zoom_17.tif?csf=1&web=1&e=TJ9F3O
Javier,EG173,Ezbat Al Borg,Egypt,,Ezbat Al Borg,31.518681,31.857094,WWTP,2004,,Operational ,No,Municipal,Max secondary ,Oxidation Ponds,7300000,4745000,4745000,Surface water,Nile River (DS the Barrage),4745000,,0,0,1,0.865099251,Wastewater-Treatment-Facility,0.60061878,4,0,https://cgiar.sharepoint.com/:i:/r/sites/IWMI-E-ReWater/Shared%20Documents/Pilar%201%20-%20AI/images/Re_Train/Javier_Database_Image/images_Egypt/Javier_Egypt_EG173_map_zoom_17.tif?csf=1&web=1&e=TJ9F3O
Javier,EG174,Alkhiata,Egypt,,Shatt Al Kheyatah,31.453071,31.824793,WWTP,1991,,Operational ,No,Municipal,Max secondary ,Oxidation Ponds,456250,949000,949000,Surface water,Lake Al-manzala,949000,,0,0,1,0.678625762,Wastewater-Treatment-Facility,0.530868113,1,0,https://cgiar.sharepoint.com/:i:/r/sites/IWMI-E-ReWater/Shared%20Documents/Pilar%201%20-%20AI/images/Re_Train/Javier_Database_Image/images_Egypt/Javier_Egypt_EG174_map_zoom_17.tif?csf=1&web=1&e=TJ9F3O
Javier,EG175,Adliya,Egypt,,Azab El-Nahda,31.385888,31.765739,WWTP,1991,,Operational ,No,Municipal,Max secondary ,Oxidation Ponds,365000,456250,456250,Surface water,Adlia Drain to Manzala Lake,456250,,0,0,1,0.998800039,,,,,https://cgiar.sharepoint.com/:i:/r/sites/IWMI-E-ReWater/Shared%20Documents/Pilar%201%20-%20AI/images/Re_Train/Javier_Database_Image/images_Egypt/Javier_Egypt_EG175_map_zoom_17.tif?csf=1&web=1&e=TJ9F3O
Javier,EG176,Faraskur,Egypt,,Faraskur,31.329948,31.746793,WWTP,2004,,Operational ,No,Municipal,Max secondary ,Activated Sludge,7665000,5110000,5110000,Surface water,Fraskor Drain to Manzala Lake,5110000,,0,0,1,0.99862361,Wastewater-Treatment-Facility,0.844940126,3,8,https://cgiar.sharepoint.com/:i:/r/sites/IWMI-E-ReWater/Shared%20Documents/Pilar%201%20-%20AI/images/Re_Train/Javier_Database_Image/images_Egypt/Javier_Egypt_EG176_map_zoom_17.tif?csf=1&web=1&e=TJ9F3O
Javier,EG177,Alroda,Egypt,,Alroda,31.316057,31.749257,WWTP,1990,,Operational ,No,Municipal,Max secondary ,Activated Sludge,2555000,2555000,2555000,Surface water,Alroda drain,2555000,,0,0,1,0.996383309,,,,,https://cgiar.sharepoint.com/:i:/r/sites/IWMI-E-ReWater/Shared%20Documents/Pilar%201%20-%20AI/images/Re_Train/Javier_Database_Image/images_Egypt/Javier_Egypt_EG177_map_zoom_17.tif?csf=1&web=1&e=TJ9F3O
Javier,EG178,Sherbas,Egypt,,Sherbas,31.274766,31.678996,WWTP,1990,,Operational ,No,Municipal,Max secondary ,Activated Sludge,620500,821250,821250,Surface water,Shribas Drain to Asserow Alaala,821250,,0,0,1,0.989965916,,,1,0,https://cgiar.sharepoint.com/:i:/r/sites/IWMI-E-ReWater/Shared%20Documents/Pilar%201%20-%20AI/images/Re_Train/Javier_Database_Image/images_Egypt/Javier_Egypt_EG178_map_zoom_17.tif?csf=1&web=1&e=TJ9F3O
Javier,EG179,Kafr Al Arab,Egypt,,Faraskur,31.298841,31.701016,WWTP,1991,,Operational ,No,Municipal,Max secondary ,Activated Sludge,620500,821250,821250,Surface water,Kafer Alarab To Asserow Alaala,821250,,0,0,1,0.770004809,,,,,https://cgiar.sharepoint.com/:i:/r/sites/IWMI-E-ReWater/Shared%20Documents/Pilar%201%20-%20AI/images/Re_Train/Javier_Database_Image/images_Egypt/Javier_Egypt_EG179_map_zoom_17.tif?csf=1&web=1&e=TJ9F3O
Javier,EG180, Guanemia,Egypt,,Faraskur,31.300592,31.737635,WWTP,1991,,Operational ,No,Municipal,Max secondary ,Activated Sludge,620500,821250,821250,Surface water,Alghnemia Drain to Asserow Alaala,821250,,0,0,1,0.968643069,Wastewater-Treatment-Facility,0.781749249,1,0,https://cgiar.sharepoint.com/:i:/r/sites/IWMI-E-ReWater/Shared%20Documents/Pilar%201%20-%20AI/images/Re_Train/Javier_Database_Image/images_Egypt/Javier_Egypt_EG180_map_zoom_17.tif?csf=1&web=1&e=TJ9F3O
Javier,EG181,Hourani,Egypt,,Faraskur,31.364204,31.750855,WWTP,1998,,Operational ,No,Municipal,Max secondary ,Oxidation Ponds,730000,912500,912500,Surface water,Fraskor Drain To Manzala Lake,912500,,0,0,1,0.998862982,Wastewater-Treatment-Facility,0.804783762,1,1,https://cgiar.sharepoint.com/:i:/r/sites/IWMI-E-ReWater/Shared%20Documents/Pilar%201%20-%20AI/images/Re_Train/Javier_Database_Image/images_Egypt/Javier_Egypt_EG181_map_zoom_17.tif?csf=1&web=1&e=TJ9F3O
Javier,EG182,Alrahmania,Egypt,,Faraskur,31.297216,31.763436,WWTP,1991,,Operational ,No,Municipal,Max secondary ,Oxidation Ponds,1095000,1131500,1131500,Surface water,Surface water,1131500,,0,0,1,0.997689009,Wastewater-Treatment-Facility,0.758946896,2,0,https://cgiar.sharepoint.com/:i:/r/sites/IWMI-E-ReWater/Shared%20Documents/Pilar%201%20-%20AI/images/Re_Train/Javier_Database_Image/images_Egypt/Javier_Egypt_EG182_map_zoom_17.tif?csf=1&web=1&e=TJ9F3O
Javier,EG183,Albarashia,Egypt,,Faraskur,31.263036,31.686191,WWTP,1991,,Operational ,No,Municipal,Max secondary ,Stog Units,219000,273750,273750,Surface water,Albrashia drain,273750,,0,0,1,0.7251212,,,,,https://cgiar.sharepoint.com/:i:/r/sites/IWMI-E-ReWater/Shared%20Documents/Pilar%201%20-%20AI/images/Re_Train/Javier_Database_Image/images_Egypt/Javier_Egypt_EG183_map_zoom_17.tif?csf=1&web=1&e=TJ9F3O
Javier,EG184,Kafr Saad,Egypt,,Kafr Saad,31.33449,31.663769,WWTP,2005,,Operational ,No,Municipal,Max secondary ,Activated Sludge,7300000,6205000,6205000,Surface water,El Mashaleb,6205000,,0,0,1,0.99136728,Wastewater-Treatment-Facility,0.868928671,5,4,https://cgiar.sharepoint.com/:i:/r/sites/IWMI-E-ReWater/Shared%20Documents/Pilar%201%20-%20AI/images/Re_Train/Javier_Database_Image/images_Egypt/Javier_Egypt_EG184_map_zoom_17.tif?csf=1&web=1&e=TJ9F3O
Javier,EG185,Meet Abo Ghalib,Egypt,,Kafr Saad,31.295111,31.677351,WWTP,1990,,Operational ,No,Municipal,Max secondary ,Activated Sludge,1460000,1350500,1350500,Surface water,Alshalib drain,1350500,,0,0,1,0.896281123,Wastewater-Treatment-Facility,0.741117239,2,0,https://cgiar.sharepoint.com/:i:/r/sites/IWMI-E-ReWater/Shared%20Documents/Pilar%201%20-%20AI/images/Re_Train/Javier_Database_Image/images_Egypt/Javier_Egypt_EG185_map_zoom_17.tif?csf=1&web=1&e=TJ9F3O
Javier,EG186,Kafr albatiykh,Egypt,,Kafr albatiykh,31.395711,31.72606,WWTP,1990,,Operational ,No,Municipal,Max secondary ,Oxidation Ponds,1095000,1368750,1368750,Surface water,Kafer Albattikh Drain to Kafer Alghab,1368750,,0,0,1,0.938796222,Wastewater-Treatment-Facility,0.800302565,1,1,https://cgiar.sharepoint.com/:i:/r/sites/IWMI-E-ReWater/Shared%20Documents/Pilar%201%20-%20AI/images/Re_Train/Javier_Database_Image/images_Egypt/Javier_Egypt_EG186_map_zoom_17.tif?csf=1&web=1&e=TJ9F3O
Javier,EG187,Kafr Al-Ghab,Egypt,,Kafr Saad,31.382758,31.493391,WWTP,2001,,Operational ,No,Municipal,Max secondary ,Extended Ventilation,1204500,1551250,1551250,Surface water,Fafer Alghab Drain No.2,1551250,,0,0,0,0.50036037,,,,,https://cgiar.sharepoint.com/:i:/r/sites/IWMI-E-ReWater/Shared%20Documents/Pilar%201%20-%20AI/images/Re_Train/Javier_Database_Image/images_Egypt/Javier_Egypt_EG187_map_zoom_17.tif?csf=1&web=1&e=TJ9F3O
Javier,EG188,Wastani,Egypt,,Kafr Saad,31.36494,31.577326,WWTP,1990,,Operational ,No,Municipal,Max secondary ,Activated Sludge,584000,638750,638750,Surface water,Fafer Alghab Drain No.1,638750,,0,0,0,0.887321055,,,,,https://cgiar.sharepoint.com/:i:/r/sites/IWMI-E-ReWater/Shared%20Documents/Pilar%201%20-%20AI/images/Re_Train/Javier_Database_Image/images_Egypt/Javier_Egypt_EG188_map_zoom_17.tif?csf=1&web=1&e=TJ9F3O
Javier,EG189,Kafr Suleiman,Egypt,,Kafr Saad,31.343666,31.701386,WWTP,1991,,Operational ,No,Municipal,Max secondary ,Oxidation Ponds,346750,438000,438000,Surface water,Kafer Alboraei to Fafer Alghab,438000,,0,0,1,0.961078763,Wastewater-Treatment-Facility,0.64257288,1,0,https://cgiar.sharepoint.com/:i:/r/sites/IWMI-E-ReWater/Shared%20Documents/Pilar%201%20-%20AI/images/Re_Train/Javier_Database_Image/images_Egypt/Javier_Egypt_EG189_map_zoom_17.tif?csf=1&web=1&e=TJ9F3O
Javier,EG190,Mohammedia,Egypt,,Kafr Saad,31.366984,31.635829,WWTP,2009,,Operational ,No,Municipal,Max secondary ,,730000,401500,401500,Surface water,Surface water,401500,,0,0,1,0.995166183,,,1,2,https://cgiar.sharepoint.com/:i:/r/sites/IWMI-E-ReWater/Shared%20Documents/Pilar%201%20-%20AI/images/Re_Train/Javier_Database_Image/images_Egypt/Javier_Egypt_EG190_map_zoom_17.tif?csf=1&web=1&e=TJ9F3O
Javier,EG191,Zarqa,Egypt,,El Zarqa,31.203972,31.62971,WWTP,2002,,Operational ,No,Municipal,Max secondary ,,7300000,8395000,8395000,Surface water,Surface water,8395000,,0,0,0,0.999539733,,,,,https://cgiar.sharepoint.com/:i:/r/sites/IWMI-E-ReWater/Shared%20Documents/Pilar%201%20-%20AI/images/Re_Train/Javier_Database_Image/images_Egypt/Javier_Egypt_EG191_map_zoom_17.tif?csf=1&web=1&e=TJ9F3O
Javier,EG192,Alsserow,Egypt,,Al Serw,31.232158,31.661072,WWTP,1991,,Operational ,No,Municipal,Max secondary ,Activated Sludge,2190000,1825000,1825000,Surface water,Almobasher Drain to Asserow Alaala,1825000,,0,0,1,0.917910993,Wastewater-Treatment-Facility,0.729139388,1,1,https://cgiar.sharepoint.com/:i:/r/sites/IWMI-E-ReWater/Shared%20Documents/Pilar%201%20-%20AI/images/Re_Train/Javier_Database_Image/images_Egypt/Javier_Egypt_EG192_map_zoom_17.tif?csf=1&web=1&e=TJ9F3O
Javier,EG193,Mitt Kholy,Egypt,,El Zarqa,31.191774,31.641259,WWTP,1986,,Operational ,No,Municipal,Max secondary ,Activated Sludge,730000,328500,328500,Surface water,Mit Alkholy to Asserow Alaala,328500,,0,0,1,0.999824226,Wastewater-Treatment-Facility,0.855534911,2,10,https://cgiar.sharepoint.com/:i:/r/sites/IWMI-E-ReWater/Shared%20Documents/Pilar%201%20-%20AI/images/Re_Train/Javier_Database_Image/images_Egypt/Javier_Egypt_EG193_map_zoom_17.tif?csf=1&web=1&e=TJ9F3O
Javier,EG194,Dakhla,Egypt,,Al Serw,31.243919,31.664867,WWTP,1991,,Operational ,No,Municipal,Max secondary ,Oxidation Ponds,1058500,1204500,1204500,Surface water,Almobasher Drain to Asserow Alaala,1204500,,0,0,1,0.997701705,,,,,https://cgiar.sharepoint.com/:i:/r/sites/IWMI-E-ReWater/Shared%20Documents/Pilar%201%20-%20AI/images/Re_Train/Javier_Database_Image/images_Egypt/Javier_Egypt_EG194_map_zoom_17.tif?csf=1&web=1&e=TJ9F3O
Javier,EG195,al -basarituh,Egypt,,Damietta,31.380423,31.797212,WWTP,2019,,Operational ,No,Municipal,Max secondary ,,730000,912500,912500,Surface water,Lake Al-manzala,912500,,0,0,1,0.598346949,,,,,https://cgiar.sharepoint.com/:i:/r/sites/IWMI-E-ReWater/Shared%20Documents/Pilar%201%20-%20AI/images/Re_Train/Javier_Database_Image/images_Egypt/Javier_Egypt_EG195_map_zoom_17.tif?csf=1&web=1&e=TJ9F3O
Javier,EG196,Nasiriyah,Egypt,,Faraskur,31.272112,31.742631,WWTP,2019,,Operational ,No,Municipal,Max secondary ,,730000,730000,730000,Surface water,Surface water,730000,,0,0,1,0.933582842,Wastewater-Treatment-Facility,0.677067518,1,0,https://cgiar.sharepoint.com/:i:/r/sites/IWMI-E-ReWater/Shared%20Documents/Pilar%201%20-%20AI/images/Re_Train/Javier_Database_Image/images_Egypt/Javier_Egypt_EG196_map_zoom_17.tif?csf=1&web=1&e=TJ9F3O
Javier,EG197,Lozi,Egypt,,Kafr Saad,31.367084,31.711469,WWTP,2019,,Operational ,No,Municipal,Max secondary ,,109500,146000,146000,Surface water,,146000,,0,0,1,0.970779777,,,,,https://cgiar.sharepoint.com/:i:/r/sites/IWMI-E-ReWater/Shared%20Documents/Pilar%201%20-%20AI/images/Re_Train/Javier_Database_Image/images_Egypt/Javier_Egypt_EG197_map_zoom_17.tif?csf=1&web=1&e=TJ9F3O
Javier,EG198,New Damietta,Egypt,,New Damietta,31.417666,31.689747,WWTP,2010,,Operational ,No,Municipal,Max secondary ,Oxidation Ponds,18250000,16425000,16425000,Surface water,Allgawer Llmadina drain,16425000,,0,0,1,0.992806137,Wastewater-Treatment-Facility,0.830866218,5,8,https://cgiar.sharepoint.com/:i:/r/sites/IWMI-E-ReWater/Shared%20Documents/Pilar%201%20-%20AI/images/Re_Train/Javier_Database_Image/images_Egypt/Javier_Egypt_EG198_map_zoom_17.tif?csf=1&web=1&e=TJ9F3O
Javier,EG199,Lake Manzala CW Project,Egypt,,South-West of Port Said City,31.19509925,32.03015524,Municipality,2001,2001,Operational,Yes,Municipal,Max tertiary ,CW,18250000,9307500,9125000,,,,Agricultural and/or forestry irrigation,,84,0,0.998301744,,,3,0,https://cgiar.sharepoint.com/:i:/r/sites/IWMI-E-ReWater/Shared%20Documents/Pilar%201%20-%20AI/images/Re_Train/Javier_Database_Image/images_Egypt/Javier_Egypt_EG199_map_zoom_17.tif?csf=1&web=1&e=TJ9F3O
Javier,EG200,Matrouh  kilo 10,Egypt,Matrouh,Mersa Matruh,31.275352,27.300709,WWTP,1998,1998,Operational ,Yes,Municipal,Max secondary ,Oxidation Ponds,9125000,12775000,12775000,,,18888750,Agricultural and/or forestry irrigation,3011250,138.6,1,0.971465111,,,7,0,https://cgiar.sharepoint.com/:i:/r/sites/IWMI-E-ReWater/Shared%20Documents/Pilar%201%20-%20AI/images/Re_Train/Javier_Database_Image/images_Egypt/Javier_Egypt_EG200_map_zoom_17.tif?csf=1&web=1&e=TJ9F3O
Javier,EG201,Matrouh  extention kilo 10,Egypt,,Mersa Matruh,31.275352,27.300709,WWTP,2019,2019,Operational ,Yes,Municipal,Max secondary ,Oxidation Ponds,12775000,9125000,9125000,,,,,,,1,0.971465111,,,7,0,https://cgiar.sharepoint.com/:i:/r/sites/IWMI-E-ReWater/Shared%20Documents/Pilar%201%20-%20AI/images/Re_Train/Javier_Database_Image/images_Egypt/Javier_Egypt_EG201_map_zoom_17.tif?csf=1&web=1&e=TJ9F3O
Javier,EG204,Al -humam,Egypt,,El Hamam,30.762892,29.416473,WWTP,2019,,Operational ,Unknown,Municipal,Max secondary ,,1460000,547500,547500,Surface water,,547500,,0,0,1,0.968715906,Wastewater-Treatment-Facility,0.778218448,9,0,https://cgiar.sharepoint.com/:i:/r/sites/IWMI-E-ReWater/Shared%20Documents/Pilar%201%20-%20AI/images/Re_Train/Javier_Database_Image/images_Egypt/Javier_Egypt_EG204_map_zoom_17.tif?csf=1&web=1&e=TJ9F3O
Javier,EG205,Kilo 97 in Marina,Egypt,,El Hamam,30.812778,29.030278,WWTP,2017,2017,Operational ,Unknown,Municipal,Max tertiary ,,2336000,2190000,2190000,,,0,Landscape irrigation,2190000,105,1,0.998025298,Wastewater-Treatment-Facility,0.831837356,2,2,https://cgiar.sharepoint.com/:i:/r/sites/IWMI-E-ReWater/Shared%20Documents/Pilar%201%20-%20AI/images/Re_Train/Javier_Database_Image/images_Egypt/Javier_Egypt_EG205_map_zoom_17.tif?csf=1&web=1&e=TJ9F3O
Javier,EG206,Kilo 102 in Marina,Egypt,,El Alamein,30.822222,28.978889,WWTP,2017,2017,Operational ,Unknown,Municipal,Max tertiary ,,4380000,3285000,3285000,,,0,Landscape irrigation,3285000,147,1,0.996703565,,,2,3,https://cgiar.sharepoint.com/:i:/r/sites/IWMI-E-ReWater/Shared%20Documents/Pilar%201%20-%20AI/images/Re_Train/Javier_Database_Image/images_Egypt/Javier_Egypt_EG206_map_zoom_17.tif?csf=1&web=1&e=TJ9F3O
Javier,EG207,New El Alamein ,Egypt,,El Alamein,30.8359326,28.95916676,Municipality,2022,2022,Operational,Unknown,Municipal,Max Tertiary,,32850000,,,,,,Landscape irrigation,,,0,0.998066843,Wastewater-Treatment-Facility,0.510134518,3,0,https://cgiar.sharepoint.com/:i:/r/sites/IWMI-E-ReWater/Shared%20Documents/Pilar%201%20-%20AI/images/Re_Train/Javier_Database_Image/images_Egypt/Javier_Egypt_EG207_map_zoom_17.tif?csf=1&web=1&e=TJ9F3O
Javier,EG208,Marassi,Egypt,,El Alamein,30.96188115,28.769116,Municipality,2020,Unknown,Operational,Unknown,Municipal,Unknown,,813950,,,,,,Landscape irrigation,,,0,0.999888301,,,,,https://cgiar.sharepoint.com/:i:/r/sites/IWMI-E-ReWater/Shared%20Documents/Pilar%201%20-%20AI/images/Re_Train/Javier_Database_Image/images_Egypt/Javier_Egypt_EG208_map_zoom_17.tif?csf=1&web=1&e=TJ9F3O
Javier,EG209,El Dabaa Port,Egypt,,El Daba,31.07900782,28.45355514,Municipality,2021,Unknown,Unknown,Unknown,Municipal,Unknown,,91250,,,,,,,,,0,0.501990736,,,,,https://cgiar.sharepoint.com/:i:/r/sites/IWMI-E-ReWater/Shared%20Documents/Pilar%201%20-%20AI/images/Re_Train/Javier_Database_Image/images_Egypt/Javier_Egypt_EG209_map_zoom_17.tif?csf=1&web=1&e=TJ9F3O
Javier,EG210,El Dabaa Police Station,Egypt,,El Daba,31.03081528,28.44504872,Municipality,2021,Unknown,Unknown,Unknown,Municipal,Unknown,,109500,,,,,,,,,0,0.748319149,,,,,https://cgiar.sharepoint.com/:i:/r/sites/IWMI-E-ReWater/Shared%20Documents/Pilar%201%20-%20AI/images/Re_Train/Javier_Database_Image/images_Egypt/Javier_Egypt_EG210_map_zoom_17.tif?csf=1&web=1&e=TJ9F3O
Javier,EG211,Baltim,Egypt,Kafr El-Sheikh,El Hamool,31.515556,31.075556,WWTP,2008,,Operational ,No,Municipal,Max secondary ,Activated Sludge,3650000,3467500,3467500,Surface water,Naser Al Amome,3467500,,0,0,1,0.991518915,Wastewater-Treatment-Facility,0.512301087,1,2,https://cgiar.sharepoint.com/:i:/r/sites/IWMI-E-ReWater/Shared%20Documents/Pilar%201%20-%20AI/images/Re_Train/Javier_Database_Image/images_Egypt/Javier_Egypt_EG211_map_zoom_17.tif?csf=1&web=1&e=TJ9F3O
Javier,EG212,Beilla,Egypt,,Bila,31.150833,31.241111,WWTP,2007,,Operational ,No,Municipal,Max secondary ,Activated Sludge,7300000,7300000,7300000,Surface water,Drain No.4,7300000,,0,0,1,0.999475896,Wastewater-Treatment-Facility,0.823759556,4,10,https://cgiar.sharepoint.com/:i:/r/sites/IWMI-E-ReWater/Shared%20Documents/Pilar%201%20-%20AI/images/Re_Train/Javier_Database_Image/images_Egypt/Javier_Egypt_EG212_map_zoom_17.tif?csf=1&web=1&e=TJ9F3O
Javier,EG213,Sakha,Egypt,,Maseir,31.082222,30.961944,WWTP,2007,,Operational ,No,Municipal,Max secondary ,Activated Sludge,34675000,27667000,27667000,Surface water,Drain No. 7,27667000,,0,0,1,0.94819051,Wastewater-Treatment-Facility,0.739404261,2,14,https://cgiar.sharepoint.com/:i:/r/sites/IWMI-E-ReWater/Shared%20Documents/Pilar%201%20-%20AI/images/Re_Train/Javier_Database_Image/images_Egypt/Javier_Egypt_EG213_map_zoom_17.tif?csf=1&web=1&e=TJ9F3O
Javier,EG214,Qall?n,Egypt,,Qall?n,31.025556,30.868611,WWTP,2004,,Operational ,No,Municipal,Max secondary ,Activated Sludge,5475000,5219500,5219500,Surface water,Nashart Drain,5219500,,0,0,1,0.998994172,Wastewater-Treatment-Facility,0.724515319,1,2,https://cgiar.sharepoint.com/:i:/r/sites/IWMI-E-ReWater/Shared%20Documents/Pilar%201%20-%20AI/images/Re_Train/Javier_Database_Image/images_Egypt/Javier_Egypt_EG214_map_zoom_17.tif?csf=1&web=1&e=TJ9F3O
Javier,EG215,Sayidi salem,Egypt,,Sayidi salem,31.239722,30.785,WWTP,2009,,Operational ,No,Municipal,Max secondary ,,3650000,3540500,3540500,Surface water,,3540500,,0,0,1,0.999661088,Wastewater-Treatment-Facility,0.7908988,2,3,https://cgiar.sharepoint.com/:i:/r/sites/IWMI-E-ReWater/Shared%20Documents/Pilar%201%20-%20AI/images/Re_Train/Javier_Database_Image/images_Egypt/Javier_Egypt_EG215_map_zoom_17.tif?csf=1&web=1&e=TJ9F3O
Javier,EG216,Dessuq,Egypt,,Dessuq,31.152991,30.705686,WWTP,2005,,Operational ,No,Municipal,Max secondary ,,14600000,8395000,8395000,Surface water,,8395000,,0,0,1,0.999302149,Wastewater-Treatment-Facility,0.788798749,3,8,https://cgiar.sharepoint.com/:i:/r/sites/IWMI-E-ReWater/Shared%20Documents/Pilar%201%20-%20AI/images/Re_Train/Javier_Database_Image/images_Egypt/Javier_Egypt_EG216_map_zoom_17.tif?csf=1&web=1&e=TJ9F3O
Javier,EG217,Hamoul,Egypt,,Hamoul,31.288056,31.110833,WWTP,2002,,Operational ,No,Municipal,Max secondary ,,7300000,6387500,6387500,Surface water,,6387500,,0,0,1,0.998042941,Wastewater-Treatment-Facility,0.740561724,1,12,https://cgiar.sharepoint.com/:i:/r/sites/IWMI-E-ReWater/Shared%20Documents/Pilar%201%20-%20AI/images/Re_Train/Javier_Database_Image/images_Egypt/Javier_Egypt_EG217_map_zoom_17.tif?csf=1&web=1&e=TJ9F3O
Javier,EG218,Namirat albasal,Egypt,,Kafr el-Sheikh,31.060856,31.049345,WWTP,2013,,Operational ,No,Municipal,Max secondary ,,2920000,1697250,1697250,Surface water,,1697250,,0,0,1,0.997817397,Wastewater-Treatment-Facility,0.709301591,0,4,https://cgiar.sharepoint.com/:i:/r/sites/IWMI-E-ReWater/Shared%20Documents/Pilar%201%20-%20AI/images/Re_Train/Javier_Database_Image/images_Egypt/Javier_Egypt_EG218_map_zoom_17.tif?csf=1&web=1&e=TJ9F3O
Javier,EG219,Al - riyad,Egypt,,Al - riyad,31.206111,30.939167,WWTP,2007,,Operational ,No,Municipal,Max secondary ,,5475000,5402000,5402000,Surface water,,5402000,,0,0,1,0.946053147,,,0,2,https://cgiar.sharepoint.com/:i:/r/sites/IWMI-E-ReWater/Shared%20Documents/Pilar%201%20-%20AI/images/Re_Train/Javier_Database_Image/images_Egypt/Javier_Egypt_EG219_map_zoom_17.tif?csf=1&web=1&e=TJ9F3O
Javier,EG220,Al -ajuzayn,Egypt,,Desouk,31.158333,30.745556,WWTP,2007,,Operational ,No,Municipal,Max secondary ,,3650000,3248500,3248500,Surface water,,3248500,,0,0,1,0.999238968,Wastewater-Treatment-Facility,0.871389627,2,2,https://cgiar.sharepoint.com/:i:/r/sites/IWMI-E-ReWater/Shared%20Documents/Pilar%201%20-%20AI/images/Re_Train/Javier_Database_Image/images_Egypt/Javier_Egypt_EG220_map_zoom_17.tif?csf=1&web=1&e=TJ9F3O
Javier,EG221,Metoubes,Egypt,,Metoubes,31.295833,30.539444,WWTP,2004,,Operational ,No,Municipal,Max secondary ,,5475000,4781500,4781500,Surface water,,4781500,,0,0,1,0.998459935,Wastewater-Treatment-Facility,0.863963544,4,4,https://cgiar.sharepoint.com/:i:/r/sites/IWMI-E-ReWater/Shared%20Documents/Pilar%201%20-%20AI/images/Re_Train/Javier_Database_Image/images_Egypt/Javier_Egypt_EG221_map_zoom_17.tif?csf=1&web=1&e=TJ9F3O
Javier,EG222,Fuwa,Egypt,,Fuwa,31.220833,30.539444,WWTP,2007,,Operational ,No,Municipal,Max secondary ,,7300000,8395000,8395000,Surface water,,8395000,,0,0,1,0.988852739,Wastewater-Treatment-Facility,0.840420783,3,14,https://cgiar.sharepoint.com/:i:/r/sites/IWMI-E-ReWater/Shared%20Documents/Pilar%201%20-%20AI/images/Re_Train/Javier_Database_Image/images_Egypt/Javier_Egypt_EG222_map_zoom_17.tif?csf=1&web=1&e=TJ9F3O
Javier,EG223,Fuwa,Egypt,,Fuwa,31.20353821,30.55009308,Municipality,2021,,Operational ,Unknown,Municipal,Max secondary ,,7300000,8395000,8395000,Surface water,,8395000,,0,0,0,0.998832166,,,,,https://cgiar.sharepoint.com/:i:/r/sites/IWMI-E-ReWater/Shared%20Documents/Pilar%201%20-%20AI/images/Re_Train/Javier_Database_Image/images_Egypt/Javier_Egypt_EG223_map_zoom_17.tif?csf=1&web=1&e=TJ9F3O
Javier,EG224,Al -hisfa,Egypt,,El-Reyad,31.312222,30.953333,WWTP,2006,,Operational ,No,Municipal,Max secondary ,,401500,474500,474500,Surface water,,474500,,0,0,1,0.998301983,Wastewater-Treatment-Facility,0.835283756,2,0,https://cgiar.sharepoint.com/:i:/r/sites/IWMI-E-ReWater/Shared%20Documents/Pilar%201%20-%20AI/images/Re_Train/Javier_Database_Image/images_Egypt/Javier_Egypt_EG224_map_zoom_17.tif?csf=1&web=1&e=TJ9F3O
Javier,EG225,Qabrit,Egypt,,Fuwa,31.194788,30.596774,WWTP,2009,,Operational ,No,Municipal,Max secondary ,,657000,620500,620500,Surface water,,620500,,0,0,1,0.980201423,Wastewater-Treatment-Facility,0.841745138,3,1,https://cgiar.sharepoint.com/:i:/r/sites/IWMI-E-ReWater/Shared%20Documents/Pilar%201%20-%20AI/images/Re_Train/Javier_Database_Image/images_Egypt/Javier_Egypt_EG225_map_zoom_17.tif?csf=1&web=1&e=TJ9F3O
Javier,EG226,Abo ghunayma,Egypt,, Sidi Salem,31.2625,30.655278,WWTP,2010,,Operational ,No,Municipal,Max secondary ,,456250,456250,456250,Surface water,,456250,,0,0,1,0.997662783,Wastewater-Treatment-Facility,0.840837121,1,1,https://cgiar.sharepoint.com/:i:/r/sites/IWMI-E-ReWater/Shared%20Documents/Pilar%201%20-%20AI/images/Re_Train/Javier_Database_Image/images_Egypt/Javier_Egypt_EG226_map_zoom_17.tif?csf=1&web=1&e=TJ9F3O
Javier,EG227,Al -zaefaran,Egypt,,El Hamool,31.261667,31.137778,WWTP,2010,,Operational ,No,Municipal,Max secondary ,,365000,346750,346750,Surface water,,346750,,0,0,1,0.999024272,Wastewater-Treatment-Facility,0.712094784,1,1,https://cgiar.sharepoint.com/:i:/r/sites/IWMI-E-ReWater/Shared%20Documents/Pilar%201%20-%20AI/images/Re_Train/Javier_Database_Image/images_Egypt/Javier_Egypt_EG227_map_zoom_17.tif?csf=1&web=1&e=TJ9F3O
Javier,EG228,Sanhour city,Egypt,,Desouk,31.118333,30.740833,WWTP,2007,,Operational ,No,Municipal,Max secondary ,,2190000,1971000,1971000,Surface water,,1971000,,0,0,1,0.99868077,Wastewater-Treatment-Facility,0.694240987,1,2,https://cgiar.sharepoint.com/:i:/r/sites/IWMI-E-ReWater/Shared%20Documents/Pilar%201%20-%20AI/images/Re_Train/Javier_Database_Image/images_Egypt/Javier_Egypt_EG228_map_zoom_17.tif?csf=1&web=1&e=TJ9F3O
Javier,EG229,Shabas Al malh,Egypt,,Desouk,31.206389,30.651389,WWTP,2010,,Operational ,No,Municipal,Max secondary ,,730000,693500,693500,Surface water,,693500,,0,0,1,0.998107791,Wastewater-Treatment-Facility,0.822785378,1,1,https://cgiar.sharepoint.com/:i:/r/sites/IWMI-E-ReWater/Shared%20Documents/Pilar%201%20-%20AI/images/Re_Train/Javier_Database_Image/images_Egypt/Javier_Egypt_EG229_map_zoom_17.tif?csf=1&web=1&e=TJ9F3O
Javier,EG230,Ebshan,Egypt,,Bila,31.152222,31.159722,WWTP,2010,,Operational ,No,Municipal,Max secondary ,,876000,803000,803000,Surface water,,803000,,0,0,1,0.999483943,Wastewater-Treatment-Facility,0.747398734,1,1,https://cgiar.sharepoint.com/:i:/r/sites/IWMI-E-ReWater/Shared%20Documents/Pilar%201%20-%20AI/images/Re_Train/Javier_Database_Image/images_Egypt/Javier_Egypt_EG230_map_zoom_17.tif?csf=1&web=1&e=TJ9F3O
Javier,EG231,Shabas Amir,Egypt,, Qall?n,31.100833,30.803333,WWTP,2009,,Operational ,No,Municipal,Max secondary ,,1095000,839500,839500,Surface water,,839500,,0,0,1,0.998220623,Wastewater-Treatment-Facility,0.658998907,1,1,https://cgiar.sharepoint.com/:i:/r/sites/IWMI-E-ReWater/Shared%20Documents/Pilar%201%20-%20AI/images/Re_Train/Javier_Database_Image/images_Egypt/Javier_Egypt_EG231_map_zoom_17.tif?csf=1&web=1&e=TJ9F3O
Javier,EG232,Sayidi  Ghazi,Egypt,,Kafr el-Sheikh,31.210833,31.039444,WWTP,2012,,Operational ,No,Municipal,Max secondary ,,2555000,2387100,2387100,Surface water,,2387100,,0,0,1,0.979110658,Wastewater-Treatment-Facility,0.759839594,1,4,https://cgiar.sharepoint.com/:i:/r/sites/IWMI-E-ReWater/Shared%20Documents/Pilar%201%20-%20AI/images/Re_Train/Javier_Database_Image/images_Egypt/Javier_Egypt_EG232_map_zoom_17.tif?csf=1&web=1&e=TJ9F3O
